{
  "agency": "JAUNT/CONNECT",
  "generatedAt": "2026-03-22T03:09:33.666Z",
  "stops": [
    {
      "id": "Whitehead@Rice_Hall",
      "name": "Whitehead Rd @ Rice Hall",
      "lat": 38.031625,
      "lon": -78.511208,
      "desc": ""
    },
    {
      "id": "Three_Notchd@East_Downtown",
      "name": "Three Notchd Rd @ East Downtown Crozet",
      "lat": 38.069265,
      "lon": -78.698305,
      "desc": ""
    },
    {
      "id": "Jefferson_Park@Pinn_Hall",
      "name": "Jefferson Park Ave @ Pinn Hall",
      "lat": 38.0323,
      "lon": -78.500839,
      "desc": ""
    },
    {
      "id": "UVA_Pharmacy_Garage",
      "name": "UVA_Pharmacy_Garage",
      "lat": 38.031301,
      "lon": -78.499844,
      "desc": ""
    },
    {
      "id": "Old_Trail@Old_Trail_Village_Cntr",
      "name": "Old Trail Rd @ Old Trail Village Center",
      "lat": 38.05869,
      "lon": -78.710812,
      "desc": ""
    },
    {
      "id": "Towncenter@Community",
      "name": "Towncenter Dr @ Community St",
      "lat": 38.126757,
      "lon": -78.444257,
      "desc": ""
    },
    {
      "id": "Lockwood@Abington_Place",
      "name": "Lockwood Dr @Abington Place Plaza",
      "lat": 38.130205,
      "lon": -78.444702,
      "desc": ""
    },
    {
      "id": "Westminster_Canterbury",
      "name": "Westminster Canterbury",
      "lat": 38.028927,
      "lon": -78.438473,
      "desc": ""
    },
    {
      "id": "Three_Notchd@Starr_Hill",
      "name": "Three Notchd Rd @ Starr Hill Brewery",
      "lat": 38.069908,
      "lon": -78.686216,
      "desc": ""
    },
    {
      "id": "Sentara_Martha_Jefferson_Hosp",
      "name": "Sentara Martha Jefferson Hospital",
      "lat": 38.022554,
      "lon": -78.443327,
      "desc": ""
    },
    {
      "id": "Jefferson_Park@Brandon",
      "name": "Jefferson Park Ave @ Brandon Ave",
      "lat": 38.032006,
      "lon": -78.503361,
      "desc": ""
    },
    {
      "id": "Dilwyn_Food_Lion",
      "name": "Dilwyn Food Lion",
      "lat": 37.544322,
      "lon": -78.47399,
      "desc": ""
    },
    {
      "id": "Barracks_Rd_McDonalds",
      "name": "Barracks Road McDonalds",
      "lat": 38.048648,
      "lon": -78.504729,
      "desc": ""
    },
    {
      "id": "Thomas_Nelson@River",
      "name": "Thomas Nelson Hwy @ River Rd",
      "lat": 37.845289,
      "lon": -78.822211,
      "desc": ""
    },
    {
      "id": "Park_Ridge@Stonegate",
      "name": "Park Ridge Dr @ Stonegate Ln",
      "lat": 38.066491,
      "lon": -78.677233,
      "desc": ""
    },
    {
      "id": "Virginia_Inst_For_The_Blind",
      "name": "Virginia Institute for the Blind",
      "lat": 38.022686,
      "lon": -78.472787,
      "desc": ""
    },
    {
      "id": "Jarman_Lake@Grayrock",
      "name": "Jarman Lake Rd @ Grayrock Rd",
      "lat": 38.070638,
      "lon": -78.71744,
      "desc": ""
    },
    {
      "id": "Northgate_Primary_Care",
      "name": "Northgate_Primary_Care",
      "lat": 38.031015,
      "lon": -78.500502,
      "desc": ""
    },
    {
      "id": "Lee@ UVA_Health",
      "name": "Lee St @ UVA Health System",
      "lat": 38.03175,
      "lon": -78.498391,
      "desc": ""
    },
    {
      "id": "PVCC_Stultz_Center",
      "name": "PVCC Stultz Center",
      "lat": 38.005661,
      "lon": -78.48037,
      "desc": ""
    },
    {
      "id": "Freedom@Edmond",
      "name": "Freedom Blvd @ Edmond Dr",
      "lat": 38.070242,
      "lon": -78.715141,
      "desc": ""
    },
    {
      "id": "Summerford@Welbourne",
      "name": "Summerford Ln @ Welbourne Ln",
      "lat": 38.064199,
      "lon": -78.71013,
      "desc": ""
    },
    {
      "id": "Park_Ridge@Eastern",
      "name": "Park Ridge Dr @ Eastern Ave",
      "lat": 38.065426,
      "lon": -78.685201,
      "desc": ""
    },
    {
      "id": "Jefferson_Park@West_Complex",
      "name": "Jefferson Park Ave @ West Complex",
      "lat": 38.032586,
      "lon": -78.500461,
      "desc": ""
    },
    {
      "id": "Park_Ridge@Cardinal_Crest",
      "name": "Park Ridge Dr @ Cardinal Crest Ct",
      "lat": 38.064478,
      "lon": -78.679813,
      "desc": ""
    },
    {
      "id": "Hollymead_Food_Lion",
      "name": "Food Lion Hollymead",
      "lat": 38.129341,
      "lon": -78.436039,
      "desc": ""
    },
    {
      "id": "Mechums_River@Amber_Ridge",
      "name": "Mechums River @ Amber Ridge Rd",
      "lat": 38.068229,
      "lon": -78.664282,
      "desc": ""
    },
    {
      "id": "Midway_Market",
      "name": "Midway Market",
      "lat": 37.680904,
      "lon": -78.514674,
      "desc": ""
    },
    {
      "id": "Fontain_Research_Park",
      "name": "Fontaine Research Park",
      "lat": 38.025824,
      "lon": -78.526102,
      "desc": ""
    },
    {
      "id": "ReStore_N_Station",
      "name": "Re-Store 'N Station",
      "lat": 37.718096,
      "lon": -78.503446,
      "desc": ""
    },
    {
      "id": "Emmet@Central_Grounds_Garage",
      "name": "Emmet St @ Central Grounds Garage",
      "lat": 38.035408,
      "lon": -78.508152,
      "desc": ""
    },
    {
      "id": "Emmet@Ridley_Hall",
      "name": "Emmet St @ Ridley Hall",
      "lat": 38.034844,
      "lon": -78.508578,
      "desc": ""
    },
    {
      "id": "Wickham_Pond@Clubhouse",
      "name": "Wickham Pond Dr @ Clubhouse",
      "lat": 38.069173,
      "lon": -78.669407,
      "desc": ""
    },
    {
      "id": "Jefferson_Park@Cabell",
      "name": "Jefferson_Park@Cabell",
      "lat": 38.032071,
      "lon": -78.503375,
      "desc": ""
    },
    {
      "id": "Nelson_Center",
      "name": "Nelson Center",
      "lat": 37.7503446,
      "lon": -78.879116,
      "desc": ""
    },
    {
      "id": "Ridge_McIntire@Omni",
      "name": "Ridge McIntire Rd @ Omni Hotel",
      "lat": 38.031599,
      "lon": -78.484879,
      "desc": ""
    },
    {
      "id": "Jarmans_Gap@Old_Trail",
      "name": "Jarmans Gap Rd @ Old Trail Rd",
      "lat": 38.068551,
      "lon": -78.711484,
      "desc": ""
    },
    {
      "id": "Scottsville_Farm_Market",
      "name": "Scottsville Farmers Market",
      "lat": 37.798107,
      "lon": -78.495335,
      "desc": ""
    },
    {
      "id": "UVA_Medical_Load_Dock",
      "name": "UVA_Medical_Load_Dock",
      "lat": 38.031301,
      "lon": -78.499844,
      "desc": ""
    }
  ],
  "routes": [
    {
      "id": "Croz_AM_East_3",
      "short_name": "Crozet",
      "long_name": "East",
      "type": 3,
      "color": "0ad02b"
    },
    {
      "id": "Buck_East_AM",
      "short_name": "Buckingham",
      "long_name": "East",
      "type": 3,
      "color": "fb42d6"
    },
    {
      "id": "Croz_PM_HOL_Loop_1",
      "short_name": "Crozet",
      "long_name": "Holiday Evening Loop",
      "type": 3,
      "color": "08b5df"
    },
    {
      "id": "Buck_North_AM",
      "short_name": "Buckingham",
      "long_name": "North",
      "type": 3,
      "color": "a15cf8"
    },
    {
      "id": "Croz_EV_Loop",
      "short_name": "Crozet",
      "long_name": "Evening Loop",
      "type": 3,
      "color": "08b5df"
    },
    {
      "id": "29North_PM_2 (1)",
      "short_name": "29",
      "long_name": "North Route",
      "type": 3,
      "color": "e6750c"
    },
    {
      "id": "Love_AM",
      "short_name": "Love_AM",
      "long_name": "Lovingston",
      "type": 3,
      "color": "ff33f3"
    },
    {
      "id": "Croz_AM_HOL_Loop_1",
      "short_name": "Crozet",
      "long_name": "Holiday Morning Loop",
      "type": 3,
      "color": "08b5df"
    },
    {
      "id": "Croz_AM_West_2 (1)",
      "short_name": "Crozet",
      "long_name": "West",
      "type": 3,
      "color": "06e32a"
    }
  ],
  "departures": {
    "Whitehead@Rice_Hall": {
      "monday": [
        "06:35",
        "06:47",
        "07:35",
        "07:56",
        "08:46",
        "09:17",
        "16:05",
        "16:47",
        "17:28",
        "18:08"
      ],
      "tuesday": [
        "06:35",
        "06:47",
        "07:35",
        "07:56",
        "08:46",
        "09:17",
        "16:05",
        "16:47",
        "17:28",
        "18:08"
      ],
      "wednesday": [
        "06:35",
        "06:47",
        "07:35",
        "07:56",
        "08:46",
        "09:17",
        "16:05",
        "16:47",
        "17:28",
        "18:08"
      ],
      "thursday": [
        "06:35",
        "06:47",
        "07:35",
        "07:56",
        "08:46",
        "09:17",
        "16:05",
        "16:47",
        "17:28",
        "18:08"
      ],
      "friday": [
        "06:35",
        "06:47",
        "07:35",
        "07:56",
        "08:46",
        "09:17",
        "16:05",
        "16:47",
        "17:28",
        "18:08"
      ],
      "saturday": [],
      "sunday": []
    },
    "Three_Notchd@East_Downtown": {
      "monday": [
        "05:57",
        "06:04",
        "07:05",
        "07:26",
        "08:04",
        "08:47",
        "16:33",
        "16:42",
        "17:26",
        "18:00",
        "18:06",
        "18:45",
        "19:33",
        "20:21"
      ],
      "tuesday": [
        "05:57",
        "06:04",
        "07:05",
        "07:26",
        "08:04",
        "08:47",
        "16:33",
        "16:42",
        "17:26",
        "18:00",
        "18:06",
        "18:45",
        "19:33",
        "20:21"
      ],
      "wednesday": [
        "05:57",
        "06:04",
        "07:05",
        "07:26",
        "08:04",
        "08:47",
        "16:33",
        "16:42",
        "17:26",
        "18:00",
        "18:06",
        "18:45",
        "19:33",
        "20:21"
      ],
      "thursday": [
        "05:57",
        "06:04",
        "07:05",
        "07:26",
        "08:04",
        "08:47",
        "16:33",
        "16:42",
        "17:26",
        "18:00",
        "18:06",
        "18:45",
        "19:33",
        "20:21"
      ],
      "friday": [
        "05:57",
        "06:04",
        "07:05",
        "07:26",
        "08:04",
        "08:47",
        "16:33",
        "16:42",
        "17:26",
        "18:00",
        "18:06",
        "18:45",
        "19:33",
        "20:21"
      ],
      "saturday": [],
      "sunday": []
    },
    "Jefferson_Park@Pinn_Hall": {
      "monday": [
        "06:38",
        "06:43",
        "06:45",
        "06:50",
        "07:21",
        "07:40",
        "07:51",
        "07:59",
        "08:33",
        "08:49",
        "08:50",
        "09:20"
      ],
      "tuesday": [
        "06:38",
        "06:43",
        "06:45",
        "06:50",
        "07:21",
        "07:40",
        "07:51",
        "07:59",
        "08:33",
        "08:49",
        "08:50",
        "09:20"
      ],
      "wednesday": [
        "06:38",
        "06:43",
        "06:45",
        "06:50",
        "07:21",
        "07:40",
        "07:51",
        "07:59",
        "08:33",
        "08:49",
        "08:50",
        "09:20"
      ],
      "thursday": [
        "06:38",
        "06:43",
        "06:45",
        "06:50",
        "07:21",
        "07:40",
        "07:51",
        "07:59",
        "08:33",
        "08:49",
        "08:50",
        "09:20"
      ],
      "friday": [
        "06:38",
        "06:43",
        "06:45",
        "06:50",
        "07:21",
        "07:40",
        "07:51",
        "07:59",
        "08:33",
        "08:49",
        "08:50",
        "09:20"
      ],
      "saturday": [],
      "sunday": []
    },
    "UVA_Pharmacy_Garage": {
      "monday": [
        "06:44",
        "07:17",
        "16:00"
      ],
      "tuesday": [
        "06:44",
        "07:17",
        "16:00"
      ],
      "wednesday": [
        "06:44",
        "07:17",
        "16:00"
      ],
      "thursday": [
        "06:44",
        "07:17",
        "16:00"
      ],
      "friday": [
        "06:44",
        "07:17",
        "16:00"
      ],
      "saturday": [],
      "sunday": []
    },
    "Old_Trail@Old_Trail_Village_Cntr": {
      "monday": [
        "06:14",
        "06:16",
        "06:25",
        "07:01",
        "07:10",
        "07:35",
        "08:12",
        "08:22",
        "08:56",
        "16:32",
        "16:42",
        "17:16",
        "17:26",
        "17:56",
        "18:06",
        "18:09",
        "18:35",
        "18:45",
        "19:42",
        "20:30"
      ],
      "tuesday": [
        "06:14",
        "06:16",
        "06:25",
        "07:01",
        "07:10",
        "07:35",
        "08:12",
        "08:22",
        "08:56",
        "16:32",
        "16:42",
        "17:16",
        "17:26",
        "17:56",
        "18:06",
        "18:09",
        "18:35",
        "18:45",
        "19:42",
        "20:30"
      ],
      "wednesday": [
        "06:14",
        "06:16",
        "06:25",
        "07:01",
        "07:10",
        "07:35",
        "08:12",
        "08:22",
        "08:56",
        "16:32",
        "16:42",
        "17:16",
        "17:26",
        "17:56",
        "18:06",
        "18:09",
        "18:35",
        "18:45",
        "19:42",
        "20:30"
      ],
      "thursday": [
        "06:14",
        "06:16",
        "06:25",
        "07:01",
        "07:10",
        "07:35",
        "08:12",
        "08:22",
        "08:56",
        "16:32",
        "16:42",
        "17:16",
        "17:26",
        "17:56",
        "18:06",
        "18:09",
        "18:35",
        "18:45",
        "19:42",
        "20:30"
      ],
      "friday": [
        "06:14",
        "06:16",
        "06:25",
        "07:01",
        "07:10",
        "07:35",
        "08:12",
        "08:22",
        "08:56",
        "16:32",
        "16:42",
        "17:16",
        "17:26",
        "17:56",
        "18:06",
        "18:09",
        "18:35",
        "18:45",
        "19:42",
        "20:30"
      ],
      "saturday": [],
      "sunday": []
    },
    "Towncenter@Community": {
      "monday": [
        "06:27",
        "07:20",
        "08:13",
        "17:22",
        "17:52",
        "18:45"
      ],
      "tuesday": [
        "06:27",
        "07:20",
        "08:13",
        "17:22",
        "17:52",
        "18:45"
      ],
      "wednesday": [
        "06:27",
        "07:20",
        "08:13",
        "17:22",
        "17:52",
        "18:45"
      ],
      "thursday": [
        "06:27",
        "07:20",
        "08:13",
        "17:22",
        "17:52",
        "18:45"
      ],
      "friday": [
        "06:27",
        "07:20",
        "08:13",
        "17:22",
        "17:52",
        "18:45"
      ],
      "saturday": [],
      "sunday": []
    },
    "Lockwood@Abington_Place": {
      "monday": [
        "06:25",
        "07:18",
        "08:11",
        "17:20",
        "17:50",
        "18:43"
      ],
      "tuesday": [
        "06:25",
        "07:18",
        "08:11",
        "17:20",
        "17:50",
        "18:43"
      ],
      "wednesday": [
        "06:25",
        "07:18",
        "08:11",
        "17:20",
        "17:50",
        "18:43"
      ],
      "thursday": [
        "06:25",
        "07:18",
        "08:11",
        "17:20",
        "17:50",
        "18:43"
      ],
      "friday": [
        "06:25",
        "07:18",
        "08:11",
        "17:20",
        "17:50",
        "18:43"
      ],
      "saturday": [],
      "sunday": []
    },
    "Westminster_Canterbury": {
      "monday": [
        "07:07",
        "16:15"
      ],
      "tuesday": [
        "07:07",
        "16:15"
      ],
      "wednesday": [
        "07:07",
        "16:15"
      ],
      "thursday": [
        "07:07",
        "16:15"
      ],
      "friday": [
        "07:07",
        "16:15"
      ],
      "saturday": [],
      "sunday": []
    },
    "Three_Notchd@Starr_Hill": {
      "monday": [
        "06:00",
        "06:01",
        "07:08",
        "07:22",
        "08:07",
        "08:43",
        "16:29",
        "16:39",
        "17:23",
        "17:56",
        "18:03",
        "18:42",
        "19:29",
        "20:18"
      ],
      "tuesday": [
        "06:00",
        "06:01",
        "07:08",
        "07:22",
        "08:07",
        "08:43",
        "16:29",
        "16:39",
        "17:23",
        "17:56",
        "18:03",
        "18:42",
        "19:29",
        "20:18"
      ],
      "wednesday": [
        "06:00",
        "06:01",
        "07:08",
        "07:22",
        "08:07",
        "08:43",
        "16:29",
        "16:39",
        "17:23",
        "17:56",
        "18:03",
        "18:42",
        "19:29",
        "20:18"
      ],
      "thursday": [
        "06:00",
        "06:01",
        "07:08",
        "07:22",
        "08:07",
        "08:43",
        "16:29",
        "16:39",
        "17:23",
        "17:56",
        "18:03",
        "18:42",
        "19:29",
        "20:18"
      ],
      "friday": [
        "06:00",
        "06:01",
        "07:08",
        "07:22",
        "08:07",
        "08:43",
        "16:29",
        "16:39",
        "17:23",
        "17:56",
        "18:03",
        "18:42",
        "19:29",
        "20:18"
      ],
      "saturday": [],
      "sunday": []
    },
    "Sentara_Martha_Jefferson_Hosp": {
      "monday": [
        "07:00",
        "16:22"
      ],
      "tuesday": [
        "07:00",
        "16:22"
      ],
      "wednesday": [
        "07:00",
        "16:22"
      ],
      "thursday": [
        "07:00",
        "16:22"
      ],
      "friday": [
        "07:00",
        "16:22"
      ],
      "saturday": [],
      "sunday": []
    },
    "Jefferson_Park@Brandon": {
      "monday": [
        "07:16"
      ],
      "tuesday": [
        "07:16"
      ],
      "wednesday": [
        "07:16"
      ],
      "thursday": [
        "07:16"
      ],
      "friday": [
        "07:16"
      ],
      "saturday": [],
      "sunday": []
    },
    "Dilwyn_Food_Lion": {
      "monday": [
        "05:45",
        "06:13",
        "17:27",
        "18:38"
      ],
      "tuesday": [
        "05:45",
        "06:13",
        "17:27",
        "18:38"
      ],
      "wednesday": [
        "05:45",
        "06:13",
        "17:27",
        "18:38"
      ],
      "thursday": [
        "05:45",
        "06:13",
        "17:27",
        "18:38"
      ],
      "friday": [
        "05:45",
        "06:13",
        "17:27",
        "18:38"
      ],
      "saturday": [],
      "sunday": []
    },
    "Barracks_Rd_McDonalds": {
      "monday": [
        "07:30",
        "17:10"
      ],
      "tuesday": [
        "07:30",
        "17:10"
      ],
      "wednesday": [
        "07:30",
        "17:10"
      ],
      "thursday": [
        "07:30",
        "17:10"
      ],
      "friday": [
        "07:30",
        "17:10"
      ],
      "saturday": [],
      "sunday": []
    },
    "Thomas_Nelson@River": {
      "monday": [
        "06:46",
        "17:25"
      ],
      "tuesday": [
        "06:46",
        "17:25"
      ],
      "wednesday": [
        "06:46",
        "17:25"
      ],
      "thursday": [
        "06:46",
        "17:25"
      ],
      "friday": [
        "06:46",
        "17:25"
      ],
      "saturday": [],
      "sunday": []
    },
    "Park_Ridge@Stonegate": {
      "monday": [
        "05:53",
        "06:02",
        "07:10",
        "07:13",
        "08:09",
        "08:34",
        "16:20",
        "16:33",
        "17:18",
        "17:47",
        "17:58",
        "18:37",
        "19:20",
        "20:09"
      ],
      "tuesday": [
        "05:53",
        "06:02",
        "07:10",
        "07:13",
        "08:09",
        "08:34",
        "16:20",
        "16:33",
        "17:18",
        "17:47",
        "17:58",
        "18:37",
        "19:20",
        "20:09"
      ],
      "wednesday": [
        "05:53",
        "06:02",
        "07:10",
        "07:13",
        "08:09",
        "08:34",
        "16:20",
        "16:33",
        "17:18",
        "17:47",
        "17:58",
        "18:37",
        "19:20",
        "20:09"
      ],
      "thursday": [
        "05:53",
        "06:02",
        "07:10",
        "07:13",
        "08:09",
        "08:34",
        "16:20",
        "16:33",
        "17:18",
        "17:47",
        "17:58",
        "18:37",
        "19:20",
        "20:09"
      ],
      "friday": [
        "05:53",
        "06:02",
        "07:10",
        "07:13",
        "08:09",
        "08:34",
        "16:20",
        "16:33",
        "17:18",
        "17:47",
        "17:58",
        "18:37",
        "19:20",
        "20:09"
      ],
      "saturday": [],
      "sunday": []
    },
    "Virginia_Inst_For_The_Blind": {
      "monday": [
        "07:31",
        "16:28"
      ],
      "tuesday": [
        "07:31",
        "16:28"
      ],
      "wednesday": [
        "07:31",
        "16:28"
      ],
      "thursday": [
        "07:31",
        "16:28"
      ],
      "friday": [
        "07:31",
        "16:28"
      ],
      "saturday": [],
      "sunday": []
    },
    "Jarman_Lake@Grayrock": {
      "monday": [
        "06:08",
        "06:19",
        "07:04",
        "07:29",
        "08:15",
        "08:50",
        "16:36",
        "16:38",
        "17:22",
        "18:02",
        "18:03",
        "18:41",
        "19:36",
        "20:24"
      ],
      "tuesday": [
        "06:08",
        "06:19",
        "07:04",
        "07:29",
        "08:15",
        "08:50",
        "16:36",
        "16:38",
        "17:22",
        "18:02",
        "18:03",
        "18:41",
        "19:36",
        "20:24"
      ],
      "wednesday": [
        "06:08",
        "06:19",
        "07:04",
        "07:29",
        "08:15",
        "08:50",
        "16:36",
        "16:38",
        "17:22",
        "18:02",
        "18:03",
        "18:41",
        "19:36",
        "20:24"
      ],
      "thursday": [
        "06:08",
        "06:19",
        "07:04",
        "07:29",
        "08:15",
        "08:50",
        "16:36",
        "16:38",
        "17:22",
        "18:02",
        "18:03",
        "18:41",
        "19:36",
        "20:24"
      ],
      "friday": [
        "06:08",
        "06:19",
        "07:04",
        "07:29",
        "08:15",
        "08:50",
        "16:36",
        "16:38",
        "17:22",
        "18:02",
        "18:03",
        "18:41",
        "19:36",
        "20:24"
      ],
      "saturday": [],
      "sunday": []
    },
    "Northgate_Primary_Care": {
      "monday": [
        "17:13"
      ],
      "tuesday": [
        "17:13"
      ],
      "wednesday": [
        "17:13"
      ],
      "thursday": [
        "17:13"
      ],
      "friday": [
        "17:13"
      ],
      "saturday": [],
      "sunday": []
    },
    "Lee@ UVA_Health": {
      "monday": [
        "06:47",
        "07:42",
        "08:35",
        "16:46",
        "17:16",
        "18:09"
      ],
      "tuesday": [
        "06:47",
        "07:42",
        "08:35",
        "16:46",
        "17:16",
        "18:09"
      ],
      "wednesday": [
        "06:47",
        "07:42",
        "08:35",
        "16:46",
        "17:16",
        "18:09"
      ],
      "thursday": [
        "06:47",
        "07:42",
        "08:35",
        "16:46",
        "17:16",
        "18:09"
      ],
      "friday": [
        "06:47",
        "07:42",
        "08:35",
        "16:46",
        "17:16",
        "18:09"
      ],
      "saturday": [],
      "sunday": []
    },
    "PVCC_Stultz_Center": {
      "monday": [
        "07:07",
        "17:26"
      ],
      "tuesday": [
        "07:07",
        "17:26"
      ],
      "wednesday": [
        "07:07",
        "17:26"
      ],
      "thursday": [
        "07:07",
        "17:26"
      ],
      "friday": [
        "07:07",
        "17:26"
      ],
      "saturday": [],
      "sunday": []
    },
    "Freedom@Edmond": {
      "monday": [
        "06:09",
        "06:20",
        "07:05",
        "07:30",
        "08:16",
        "08:51",
        "16:37",
        "16:39",
        "17:23",
        "18:03",
        "18:04",
        "18:42",
        "19:37",
        "20:25"
      ],
      "tuesday": [
        "06:09",
        "06:20",
        "07:05",
        "07:30",
        "08:16",
        "08:51",
        "16:37",
        "16:39",
        "17:23",
        "18:03",
        "18:04",
        "18:42",
        "19:37",
        "20:25"
      ],
      "wednesday": [
        "06:09",
        "06:20",
        "07:05",
        "07:30",
        "08:16",
        "08:51",
        "16:37",
        "16:39",
        "17:23",
        "18:03",
        "18:04",
        "18:42",
        "19:37",
        "20:25"
      ],
      "thursday": [
        "06:09",
        "06:20",
        "07:05",
        "07:30",
        "08:16",
        "08:51",
        "16:37",
        "16:39",
        "17:23",
        "18:03",
        "18:04",
        "18:42",
        "19:37",
        "20:25"
      ],
      "friday": [
        "06:09",
        "06:20",
        "07:05",
        "07:30",
        "08:16",
        "08:51",
        "16:37",
        "16:39",
        "17:23",
        "18:03",
        "18:04",
        "18:42",
        "19:37",
        "20:25"
      ],
      "saturday": [],
      "sunday": []
    },
    "Summerford@Welbourne": {
      "monday": [
        "06:12",
        "06:23",
        "07:08",
        "07:33",
        "08:19",
        "08:54",
        "16:33",
        "16:40",
        "17:18",
        "17:58",
        "18:07",
        "18:37",
        "19:40",
        "20:28"
      ],
      "tuesday": [
        "06:12",
        "06:23",
        "07:08",
        "07:33",
        "08:19",
        "08:54",
        "16:33",
        "16:40",
        "17:18",
        "17:58",
        "18:07",
        "18:37",
        "19:40",
        "20:28"
      ],
      "wednesday": [
        "06:12",
        "06:23",
        "07:08",
        "07:33",
        "08:19",
        "08:54",
        "16:33",
        "16:40",
        "17:18",
        "17:58",
        "18:07",
        "18:37",
        "19:40",
        "20:28"
      ],
      "thursday": [
        "06:12",
        "06:23",
        "07:08",
        "07:33",
        "08:19",
        "08:54",
        "16:33",
        "16:40",
        "17:18",
        "17:58",
        "18:07",
        "18:37",
        "19:40",
        "20:28"
      ],
      "friday": [
        "06:12",
        "06:23",
        "07:08",
        "07:33",
        "08:19",
        "08:54",
        "16:33",
        "16:40",
        "17:18",
        "17:58",
        "18:07",
        "18:37",
        "19:40",
        "20:28"
      ],
      "saturday": [],
      "sunday": []
    },
    "Park_Ridge@Eastern": {
      "monday": [
        "05:56",
        "06:05",
        "07:13",
        "07:16",
        "08:12",
        "08:37",
        "16:23",
        "16:36",
        "17:20",
        "17:50",
        "18:00",
        "18:39",
        "19:23",
        "20:12"
      ],
      "tuesday": [
        "05:56",
        "06:05",
        "07:13",
        "07:16",
        "08:12",
        "08:37",
        "16:23",
        "16:36",
        "17:20",
        "17:50",
        "18:00",
        "18:39",
        "19:23",
        "20:12"
      ],
      "wednesday": [
        "05:56",
        "06:05",
        "07:13",
        "07:16",
        "08:12",
        "08:37",
        "16:23",
        "16:36",
        "17:20",
        "17:50",
        "18:00",
        "18:39",
        "19:23",
        "20:12"
      ],
      "thursday": [
        "05:56",
        "06:05",
        "07:13",
        "07:16",
        "08:12",
        "08:37",
        "16:23",
        "16:36",
        "17:20",
        "17:50",
        "18:00",
        "18:39",
        "19:23",
        "20:12"
      ],
      "friday": [
        "05:56",
        "06:05",
        "07:13",
        "07:16",
        "08:12",
        "08:37",
        "16:23",
        "16:36",
        "17:20",
        "17:50",
        "18:00",
        "18:39",
        "19:23",
        "20:12"
      ],
      "saturday": [],
      "sunday": []
    },
    "Jefferson_Park@West_Complex": {
      "monday": [
        "15:48",
        "15:59",
        "16:40",
        "16:44",
        "16:49",
        "17:15",
        "17:19",
        "17:20",
        "18:02",
        "18:12",
        "18:48",
        "19:40"
      ],
      "tuesday": [
        "15:48",
        "15:59",
        "16:40",
        "16:44",
        "16:49",
        "17:15",
        "17:19",
        "17:20",
        "18:02",
        "18:12",
        "18:48",
        "19:40"
      ],
      "wednesday": [
        "15:48",
        "15:59",
        "16:40",
        "16:44",
        "16:49",
        "17:15",
        "17:19",
        "17:20",
        "18:02",
        "18:12",
        "18:48",
        "19:40"
      ],
      "thursday": [
        "15:48",
        "15:59",
        "16:40",
        "16:44",
        "16:49",
        "17:15",
        "17:19",
        "17:20",
        "18:02",
        "18:12",
        "18:48",
        "19:40"
      ],
      "friday": [
        "15:48",
        "15:59",
        "16:40",
        "16:44",
        "16:49",
        "17:15",
        "17:19",
        "17:20",
        "18:02",
        "18:12",
        "18:48",
        "19:40"
      ],
      "saturday": [],
      "sunday": []
    },
    "Park_Ridge@Cardinal_Crest": {
      "monday": [
        "05:58",
        "06:07",
        "07:15",
        "07:18",
        "08:14",
        "08:39",
        "16:25",
        "16:38",
        "17:22",
        "17:52",
        "18:02",
        "18:41",
        "19:25",
        "20:14"
      ],
      "tuesday": [
        "05:58",
        "06:07",
        "07:15",
        "07:18",
        "08:14",
        "08:39",
        "16:25",
        "16:38",
        "17:22",
        "17:52",
        "18:02",
        "18:41",
        "19:25",
        "20:14"
      ],
      "wednesday": [
        "05:58",
        "06:07",
        "07:15",
        "07:18",
        "08:14",
        "08:39",
        "16:25",
        "16:38",
        "17:22",
        "17:52",
        "18:02",
        "18:41",
        "19:25",
        "20:14"
      ],
      "thursday": [
        "05:58",
        "06:07",
        "07:15",
        "07:18",
        "08:14",
        "08:39",
        "16:25",
        "16:38",
        "17:22",
        "17:52",
        "18:02",
        "18:41",
        "19:25",
        "20:14"
      ],
      "friday": [
        "05:58",
        "06:07",
        "07:15",
        "07:18",
        "08:14",
        "08:39",
        "16:25",
        "16:38",
        "17:22",
        "17:52",
        "18:02",
        "18:41",
        "19:25",
        "20:14"
      ],
      "saturday": [],
      "sunday": []
    },
    "Hollymead_Food_Lion": {
      "monday": [
        "06:22",
        "07:14",
        "08:07",
        "17:16",
        "17:46",
        "18:39"
      ],
      "tuesday": [
        "06:22",
        "07:14",
        "08:07",
        "17:16",
        "17:46",
        "18:39"
      ],
      "wednesday": [
        "06:22",
        "07:14",
        "08:07",
        "17:16",
        "17:46",
        "18:39"
      ],
      "thursday": [
        "06:22",
        "07:14",
        "08:07",
        "17:16",
        "17:46",
        "18:39"
      ],
      "friday": [
        "06:22",
        "07:14",
        "08:07",
        "17:16",
        "17:46",
        "18:39"
      ],
      "saturday": [],
      "sunday": []
    },
    "Mechums_River@Amber_Ridge": {
      "monday": [
        "05:47",
        "06:14",
        "07:06",
        "07:22",
        "08:21",
        "08:27",
        "16:13",
        "16:56",
        "17:36",
        "17:40",
        "18:15",
        "19:13",
        "20:04"
      ],
      "tuesday": [
        "05:47",
        "06:14",
        "07:06",
        "07:22",
        "08:21",
        "08:27",
        "16:13",
        "16:56",
        "17:36",
        "17:40",
        "18:15",
        "19:13",
        "20:04"
      ],
      "wednesday": [
        "05:47",
        "06:14",
        "07:06",
        "07:22",
        "08:21",
        "08:27",
        "16:13",
        "16:56",
        "17:36",
        "17:40",
        "18:15",
        "19:13",
        "20:04"
      ],
      "thursday": [
        "05:47",
        "06:14",
        "07:06",
        "07:22",
        "08:21",
        "08:27",
        "16:13",
        "16:56",
        "17:36",
        "17:40",
        "18:15",
        "19:13",
        "20:04"
      ],
      "friday": [
        "05:47",
        "06:14",
        "07:06",
        "07:22",
        "08:21",
        "08:27",
        "16:13",
        "16:56",
        "17:36",
        "17:40",
        "18:15",
        "19:13",
        "20:04"
      ],
      "saturday": [],
      "sunday": []
    },
    "Midway_Market": {
      "monday": [
        "06:00",
        "06:27",
        "17:10",
        "18:17"
      ],
      "tuesday": [
        "06:00",
        "06:27",
        "17:10",
        "18:17"
      ],
      "wednesday": [
        "06:00",
        "06:27",
        "17:10",
        "18:17"
      ],
      "thursday": [
        "06:00",
        "06:27",
        "17:10",
        "18:17"
      ],
      "friday": [
        "06:00",
        "06:27",
        "17:10",
        "18:17"
      ],
      "saturday": [],
      "sunday": []
    },
    "Fontain_Research_Park": {
      "monday": [
        "06:41",
        "07:12",
        "07:27",
        "08:40",
        "16:13",
        "16:56",
        "16:57",
        "17:36",
        "18:15"
      ],
      "tuesday": [
        "06:41",
        "07:12",
        "07:27",
        "08:40",
        "16:13",
        "16:56",
        "16:57",
        "17:36",
        "18:15"
      ],
      "wednesday": [
        "06:41",
        "07:12",
        "07:27",
        "08:40",
        "16:13",
        "16:56",
        "16:57",
        "17:36",
        "18:15"
      ],
      "thursday": [
        "06:41",
        "07:12",
        "07:27",
        "08:40",
        "16:13",
        "16:56",
        "16:57",
        "17:36",
        "18:15"
      ],
      "friday": [
        "06:41",
        "07:12",
        "07:27",
        "08:40",
        "16:13",
        "16:56",
        "16:57",
        "17:36",
        "18:15"
      ],
      "saturday": [],
      "sunday": []
    },
    "ReStore_N_Station": {
      "monday": [
        "06:05",
        "06:32",
        "17:01",
        "18:12"
      ],
      "tuesday": [
        "06:05",
        "06:32",
        "17:01",
        "18:12"
      ],
      "wednesday": [
        "06:05",
        "06:32",
        "17:01",
        "18:12"
      ],
      "thursday": [
        "06:05",
        "06:32",
        "17:01",
        "18:12"
      ],
      "friday": [
        "06:05",
        "06:32",
        "17:01",
        "18:12"
      ],
      "saturday": [],
      "sunday": []
    },
    "Emmet@Central_Grounds_Garage": {
      "monday": [
        "07:22",
        "15:52",
        "16:05",
        "16:47",
        "16:54",
        "17:12",
        "17:19",
        "17:24",
        "17:28",
        "18:08",
        "18:17",
        "18:52",
        "19:44"
      ],
      "tuesday": [
        "07:22",
        "15:52",
        "16:05",
        "16:47",
        "16:54",
        "17:12",
        "17:19",
        "17:24",
        "17:28",
        "18:08",
        "18:17",
        "18:52",
        "19:44"
      ],
      "wednesday": [
        "07:22",
        "15:52",
        "16:05",
        "16:47",
        "16:54",
        "17:12",
        "17:19",
        "17:24",
        "17:28",
        "18:08",
        "18:17",
        "18:52",
        "19:44"
      ],
      "thursday": [
        "07:22",
        "15:52",
        "16:05",
        "16:47",
        "16:54",
        "17:12",
        "17:19",
        "17:24",
        "17:28",
        "18:08",
        "18:17",
        "18:52",
        "19:44"
      ],
      "friday": [
        "07:22",
        "15:52",
        "16:05",
        "16:47",
        "16:54",
        "17:12",
        "17:19",
        "17:24",
        "17:28",
        "18:08",
        "18:17",
        "18:52",
        "19:44"
      ],
      "saturday": [],
      "sunday": []
    },
    "Emmet@Ridley_Hall": {
      "monday": [
        "06:36",
        "06:42",
        "07:36",
        "07:44",
        "08:28",
        "08:43"
      ],
      "tuesday": [
        "06:36",
        "06:42",
        "07:36",
        "07:44",
        "08:28",
        "08:43"
      ],
      "wednesday": [
        "06:36",
        "06:42",
        "07:36",
        "07:44",
        "08:28",
        "08:43"
      ],
      "thursday": [
        "06:36",
        "06:42",
        "07:36",
        "07:44",
        "08:28",
        "08:43"
      ],
      "friday": [
        "06:36",
        "06:42",
        "07:36",
        "07:44",
        "08:28",
        "08:43"
      ],
      "saturday": [],
      "sunday": []
    },
    "Wickham_Pond@Clubhouse": {
      "monday": [
        "05:51",
        "06:11",
        "07:10",
        "07:19",
        "08:18",
        "08:31",
        "16:17",
        "16:32",
        "17:16",
        "17:44",
        "17:56",
        "18:35",
        "19:17",
        "20:08"
      ],
      "tuesday": [
        "05:51",
        "06:11",
        "07:10",
        "07:19",
        "08:18",
        "08:31",
        "16:17",
        "16:32",
        "17:16",
        "17:44",
        "17:56",
        "18:35",
        "19:17",
        "20:08"
      ],
      "wednesday": [
        "05:51",
        "06:11",
        "07:10",
        "07:19",
        "08:18",
        "08:31",
        "16:17",
        "16:32",
        "17:16",
        "17:44",
        "17:56",
        "18:35",
        "19:17",
        "20:08"
      ],
      "thursday": [
        "05:51",
        "06:11",
        "07:10",
        "07:19",
        "08:18",
        "08:31",
        "16:17",
        "16:32",
        "17:16",
        "17:44",
        "17:56",
        "18:35",
        "19:17",
        "20:08"
      ],
      "friday": [
        "05:51",
        "06:11",
        "07:10",
        "07:19",
        "08:18",
        "08:31",
        "16:17",
        "16:32",
        "17:16",
        "17:44",
        "17:56",
        "18:35",
        "19:17",
        "20:08"
      ],
      "saturday": [],
      "sunday": []
    },
    "Jefferson_Park@Cabell": {
      "monday": [
        "16:48"
      ],
      "tuesday": [
        "16:48"
      ],
      "wednesday": [
        "16:48"
      ],
      "thursday": [
        "16:48"
      ],
      "friday": [
        "16:48"
      ],
      "saturday": [],
      "sunday": []
    },
    "Nelson_Center": {
      "monday": [
        "06:32",
        "17:35"
      ],
      "tuesday": [
        "06:32",
        "17:35"
      ],
      "wednesday": [
        "06:32",
        "17:35"
      ],
      "thursday": [
        "06:32",
        "17:35"
      ],
      "friday": [
        "06:32",
        "17:35"
      ],
      "saturday": [],
      "sunday": []
    },
    "Ridge_McIntire@Omni": {
      "monday": [
        "05:26",
        "05:31",
        "05:53",
        "06:05",
        "06:38",
        "06:39",
        "06:45",
        "06:51",
        "06:55",
        "06:57",
        "07:38",
        "07:49",
        "07:50",
        "07:59",
        "08:06",
        "08:43",
        "08:55",
        "08:58",
        "09:27",
        "15:38",
        "15:49",
        "16:29",
        "16:35",
        "17:05",
        "17:07",
        "17:51",
        "17:55",
        "17:58",
        "18:25",
        "18:32",
        "18:38",
        "19:10",
        "19:18",
        "19:30",
        "20:05",
        "20:53"
      ],
      "tuesday": [
        "05:26",
        "05:31",
        "05:53",
        "06:05",
        "06:38",
        "06:39",
        "06:45",
        "06:51",
        "06:55",
        "06:57",
        "07:38",
        "07:49",
        "07:50",
        "07:59",
        "08:06",
        "08:43",
        "08:55",
        "08:58",
        "09:27",
        "15:38",
        "15:49",
        "16:29",
        "16:35",
        "17:05",
        "17:07",
        "17:51",
        "17:55",
        "17:58",
        "18:25",
        "18:32",
        "18:38",
        "19:10",
        "19:18",
        "19:30",
        "20:05",
        "20:53"
      ],
      "wednesday": [
        "05:26",
        "05:31",
        "05:53",
        "06:05",
        "06:38",
        "06:39",
        "06:45",
        "06:51",
        "06:55",
        "06:57",
        "07:38",
        "07:49",
        "07:50",
        "07:59",
        "08:06",
        "08:43",
        "08:55",
        "08:58",
        "09:27",
        "15:38",
        "15:49",
        "16:29",
        "16:35",
        "17:05",
        "17:07",
        "17:51",
        "17:55",
        "17:58",
        "18:25",
        "18:32",
        "18:38",
        "19:10",
        "19:18",
        "19:30",
        "20:05",
        "20:53"
      ],
      "thursday": [
        "05:26",
        "05:31",
        "05:53",
        "06:05",
        "06:38",
        "06:39",
        "06:45",
        "06:51",
        "06:55",
        "06:57",
        "07:38",
        "07:49",
        "07:50",
        "07:59",
        "08:06",
        "08:43",
        "08:55",
        "08:58",
        "09:27",
        "15:38",
        "15:49",
        "16:29",
        "16:35",
        "17:05",
        "17:07",
        "17:51",
        "17:55",
        "17:58",
        "18:25",
        "18:32",
        "18:38",
        "19:10",
        "19:18",
        "19:30",
        "20:05",
        "20:53"
      ],
      "friday": [
        "05:26",
        "05:31",
        "05:53",
        "06:05",
        "06:38",
        "06:39",
        "06:45",
        "06:51",
        "06:55",
        "06:57",
        "07:38",
        "07:49",
        "07:50",
        "07:59",
        "08:06",
        "08:43",
        "08:55",
        "08:58",
        "09:27",
        "15:38",
        "15:49",
        "16:29",
        "16:35",
        "17:05",
        "17:07",
        "17:51",
        "17:55",
        "17:58",
        "18:25",
        "18:32",
        "18:38",
        "19:10",
        "19:18",
        "19:30",
        "20:05",
        "20:53"
      ],
      "saturday": [],
      "sunday": []
    },
    "Jarmans_Gap@Old_Trail": {
      "monday": [
        "06:10",
        "06:21",
        "07:06",
        "07:31",
        "08:17",
        "08:52",
        "16:36",
        "16:38",
        "17:20",
        "18:00",
        "18:05",
        "18:39",
        "19:38",
        "20:26"
      ],
      "tuesday": [
        "06:10",
        "06:21",
        "07:06",
        "07:31",
        "08:17",
        "08:52",
        "16:36",
        "16:38",
        "17:20",
        "18:00",
        "18:05",
        "18:39",
        "19:38",
        "20:26"
      ],
      "wednesday": [
        "06:10",
        "06:21",
        "07:06",
        "07:31",
        "08:17",
        "08:52",
        "16:36",
        "16:38",
        "17:20",
        "18:00",
        "18:05",
        "18:39",
        "19:38",
        "20:26"
      ],
      "thursday": [
        "06:10",
        "06:21",
        "07:06",
        "07:31",
        "08:17",
        "08:52",
        "16:36",
        "16:38",
        "17:20",
        "18:00",
        "18:05",
        "18:39",
        "19:38",
        "20:26"
      ],
      "friday": [
        "06:10",
        "06:21",
        "07:06",
        "07:31",
        "08:17",
        "08:52",
        "16:36",
        "16:38",
        "17:20",
        "18:00",
        "18:05",
        "18:39",
        "19:38",
        "20:26"
      ],
      "saturday": [],
      "sunday": []
    },
    "Scottsville_Farm_Market": {
      "monday": [
        "06:15",
        "06:42",
        "16:52",
        "18:00"
      ],
      "tuesday": [
        "06:15",
        "06:42",
        "16:52",
        "18:00"
      ],
      "wednesday": [
        "06:15",
        "06:42",
        "16:52",
        "18:00"
      ],
      "thursday": [
        "06:15",
        "06:42",
        "16:52",
        "18:00"
      ],
      "friday": [
        "06:15",
        "06:42",
        "16:52",
        "18:00"
      ],
      "saturday": [],
      "sunday": []
    },
    "UVA_Medical_Load_Dock": {
      "monday": [
        "07:18",
        "16:47"
      ],
      "tuesday": [
        "07:18",
        "16:47"
      ],
      "wednesday": [
        "07:18",
        "16:47"
      ],
      "thursday": [
        "07:18",
        "16:47"
      ],
      "friday": [
        "07:18",
        "16:47"
      ],
      "saturday": [],
      "sunday": []
    }
  },
  "stop_routes": {
    "Whitehead@Rice_Hall": [
      "Croz_AM_HOL_Loop_1",
      "Croz_AM_West_2 (1)"
    ],
    "Three_Notchd@East_Downtown": [
      "Croz_AM_HOL_Loop_1",
      "Croz_EV_Loop",
      "Croz_AM_East_3",
      "Croz_PM_HOL_Loop_1"
    ],
    "Jefferson_Park@Pinn_Hall": [
      "Love_AM",
      "Croz_AM_HOL_Loop_1",
      "Croz_AM_East_3",
      "29North_PM_2 (1)",
      "Croz_AM_West_2 (1)"
    ],
    "UVA_Pharmacy_Garage": [
      "Buck_East_AM",
      "Buck_North_AM"
    ],
    "Old_Trail@Old_Trail_Village_Cntr": [
      "Croz_AM_HOL_Loop_1",
      "Croz_EV_Loop",
      "Croz_PM_HOL_Loop_1",
      "Croz_AM_West_2 (1)"
    ],
    "Towncenter@Community": [
      "29North_PM_2 (1)"
    ],
    "Lockwood@Abington_Place": [
      "29North_PM_2 (1)"
    ],
    "Westminster_Canterbury": [
      "Buck_East_AM"
    ],
    "Three_Notchd@Starr_Hill": [
      "Croz_AM_HOL_Loop_1",
      "Croz_EV_Loop",
      "Croz_AM_East_3",
      "Croz_PM_HOL_Loop_1"
    ],
    "Sentara_Martha_Jefferson_Hosp": [
      "Buck_East_AM"
    ],
    "Jefferson_Park@Brandon": [
      "Love_AM"
    ],
    "Dilwyn_Food_Lion": [
      "Buck_East_AM",
      "Buck_North_AM"
    ],
    "Barracks_Rd_McDonalds": [
      "Buck_North_AM"
    ],
    "Thomas_Nelson@River": [
      "Love_AM"
    ],
    "Park_Ridge@Stonegate": [
      "Croz_AM_HOL_Loop_1",
      "Croz_EV_Loop",
      "Croz_AM_East_3",
      "Croz_PM_HOL_Loop_1"
    ],
    "Virginia_Inst_For_The_Blind": [
      "Love_AM"
    ],
    "Jarman_Lake@Grayrock": [
      "Croz_AM_HOL_Loop_1",
      "Croz_EV_Loop",
      "Croz_PM_HOL_Loop_1",
      "Croz_AM_West_2 (1)"
    ],
    "Northgate_Primary_Care": [
      "Buck_North_AM"
    ],
    "Lee@ UVA_Health": [
      "29North_PM_2 (1)"
    ],
    "PVCC_Stultz_Center": [
      "Buck_North_AM"
    ],
    "Freedom@Edmond": [
      "Croz_AM_HOL_Loop_1",
      "Croz_EV_Loop",
      "Croz_PM_HOL_Loop_1",
      "Croz_AM_West_2 (1)"
    ],
    "Summerford@Welbourne": [
      "Croz_AM_HOL_Loop_1",
      "Croz_EV_Loop",
      "Croz_PM_HOL_Loop_1",
      "Croz_AM_West_2 (1)"
    ],
    "Park_Ridge@Eastern": [
      "Croz_AM_HOL_Loop_1",
      "Croz_EV_Loop",
      "Croz_AM_East_3",
      "Croz_PM_HOL_Loop_1"
    ],
    "Jefferson_Park@West_Complex": [
      "Love_AM",
      "Croz_EV_Loop",
      "Croz_AM_East_3",
      "Croz_PM_HOL_Loop_1",
      "29North_PM_2 (1)",
      "Croz_AM_West_2 (1)"
    ],
    "Park_Ridge@Cardinal_Crest": [
      "Croz_AM_HOL_Loop_1",
      "Croz_EV_Loop",
      "Croz_AM_East_3",
      "Croz_PM_HOL_Loop_1"
    ],
    "Hollymead_Food_Lion": [
      "29North_PM_2 (1)"
    ],
    "Mechums_River@Amber_Ridge": [
      "Croz_AM_HOL_Loop_1",
      "Croz_EV_Loop",
      "Croz_AM_East_3",
      "Croz_PM_HOL_Loop_1"
    ],
    "Midway_Market": [
      "Buck_East_AM",
      "Buck_North_AM"
    ],
    "Fontain_Research_Park": [
      "Love_AM",
      "Croz_AM_West_2 (1)"
    ],
    "ReStore_N_Station": [
      "Buck_East_AM",
      "Buck_North_AM"
    ],
    "Emmet@Central_Grounds_Garage": [
      "Croz_EV_Loop",
      "Croz_AM_East_3",
      "Croz_PM_HOL_Loop_1",
      "29North_PM_2 (1)",
      "Buck_North_AM"
    ],
    "Emmet@Ridley_Hall": [
      "Croz_AM_East_3",
      "29North_PM_2 (1)"
    ],
    "Wickham_Pond@Clubhouse": [
      "Croz_AM_HOL_Loop_1",
      "Croz_EV_Loop",
      "Croz_AM_East_3",
      "Croz_PM_HOL_Loop_1"
    ],
    "Jefferson_Park@Cabell": [
      "Love_AM"
    ],
    "Nelson_Center": [
      "Love_AM"
    ],
    "Ridge_McIntire@Omni": [
      "Croz_AM_HOL_Loop_1",
      "Croz_EV_Loop",
      "Croz_AM_East_3",
      "Croz_PM_HOL_Loop_1",
      "29North_PM_2 (1)",
      "Croz_AM_West_2 (1)"
    ],
    "Jarmans_Gap@Old_Trail": [
      "Croz_AM_HOL_Loop_1",
      "Croz_EV_Loop",
      "Croz_PM_HOL_Loop_1",
      "Croz_AM_West_2 (1)"
    ],
    "Scottsville_Farm_Market": [
      "Buck_East_AM",
      "Buck_North_AM"
    ],
    "UVA_Medical_Load_Dock": [
      "Love_AM"
    ]
  },
  "shapes": {
    "Love_AM-A-IB": [
      {
        "lat": 37.75034,
        "lng": -78.87911,
        "seq": 1
      },
      {
        "lat": 37.74984,
        "lng": -78.87972,
        "seq": 2
      },
      {
        "lat": 37.7498,
        "lng": -78.8797,
        "seq": 3
      },
      {
        "lat": 37.74967,
        "lng": -78.87953,
        "seq": 4
      },
      {
        "lat": 37.74957,
        "lng": -78.87938,
        "seq": 5
      },
      {
        "lat": 37.75035,
        "lng": -78.87842,
        "seq": 6
      },
      {
        "lat": 37.75081,
        "lng": -78.87785,
        "seq": 7
      },
      {
        "lat": 37.75104,
        "lng": -78.87758,
        "seq": 8
      },
      {
        "lat": 37.75132,
        "lng": -78.87729,
        "seq": 9
      },
      {
        "lat": 37.7516,
        "lng": -78.877,
        "seq": 10
      },
      {
        "lat": 37.75178,
        "lng": -78.87684,
        "seq": 11
      },
      {
        "lat": 37.75204,
        "lng": -78.87663,
        "seq": 12
      },
      {
        "lat": 37.75239,
        "lng": -78.87638,
        "seq": 13
      },
      {
        "lat": 37.75267,
        "lng": -78.87619,
        "seq": 14
      },
      {
        "lat": 37.75288,
        "lng": -78.87606,
        "seq": 15
      },
      {
        "lat": 37.75335,
        "lng": -78.87581,
        "seq": 16
      },
      {
        "lat": 37.75469,
        "lng": -78.87521,
        "seq": 17
      },
      {
        "lat": 37.75693,
        "lng": -78.87462,
        "seq": 18
      },
      {
        "lat": 37.75731,
        "lng": -78.8745,
        "seq": 19
      },
      {
        "lat": 37.75786,
        "lng": -78.87434,
        "seq": 20
      },
      {
        "lat": 37.75898,
        "lng": -78.87399,
        "seq": 21
      },
      {
        "lat": 37.75964,
        "lng": -78.87379,
        "seq": 22
      },
      {
        "lat": 37.75991,
        "lng": -78.8737,
        "seq": 23
      },
      {
        "lat": 37.76032,
        "lng": -78.87354,
        "seq": 24
      },
      {
        "lat": 37.76083,
        "lng": -78.87333,
        "seq": 25
      },
      {
        "lat": 37.76123,
        "lng": -78.87308,
        "seq": 26
      },
      {
        "lat": 37.76164,
        "lng": -78.87287,
        "seq": 27
      },
      {
        "lat": 37.762,
        "lng": -78.87268,
        "seq": 28
      },
      {
        "lat": 37.76243,
        "lng": -78.87242,
        "seq": 29
      },
      {
        "lat": 37.76275,
        "lng": -78.87222,
        "seq": 30
      },
      {
        "lat": 37.76315,
        "lng": -78.87196,
        "seq": 31
      },
      {
        "lat": 37.76346,
        "lng": -78.87175,
        "seq": 32
      },
      {
        "lat": 37.76377,
        "lng": -78.87154,
        "seq": 33
      },
      {
        "lat": 37.76415,
        "lng": -78.87128,
        "seq": 34
      },
      {
        "lat": 37.76417,
        "lng": -78.87126,
        "seq": 35
      },
      {
        "lat": 37.76461,
        "lng": -78.87097,
        "seq": 36
      },
      {
        "lat": 37.76545,
        "lng": -78.87043,
        "seq": 37
      },
      {
        "lat": 37.7657,
        "lng": -78.87027,
        "seq": 38
      },
      {
        "lat": 37.7661,
        "lng": -78.87001,
        "seq": 39
      },
      {
        "lat": 37.7664,
        "lng": -78.86985,
        "seq": 40
      },
      {
        "lat": 37.76659,
        "lng": -78.86978,
        "seq": 41
      },
      {
        "lat": 37.76682,
        "lng": -78.86969,
        "seq": 42
      },
      {
        "lat": 37.76708,
        "lng": -78.86959,
        "seq": 43
      },
      {
        "lat": 37.76731,
        "lng": -78.86952,
        "seq": 44
      },
      {
        "lat": 37.7677,
        "lng": -78.86942,
        "seq": 45
      },
      {
        "lat": 37.76794,
        "lng": -78.86939,
        "seq": 46
      },
      {
        "lat": 37.76824,
        "lng": -78.86938,
        "seq": 47
      },
      {
        "lat": 37.76846,
        "lng": -78.86939,
        "seq": 48
      },
      {
        "lat": 37.76867,
        "lng": -78.86942,
        "seq": 49
      },
      {
        "lat": 37.76895,
        "lng": -78.86948,
        "seq": 50
      },
      {
        "lat": 37.76899,
        "lng": -78.86948,
        "seq": 51
      },
      {
        "lat": 37.76926,
        "lng": -78.86957,
        "seq": 52
      },
      {
        "lat": 37.76952,
        "lng": -78.86966,
        "seq": 53
      },
      {
        "lat": 37.76971,
        "lng": -78.86974,
        "seq": 54
      },
      {
        "lat": 37.76982,
        "lng": -78.86979,
        "seq": 55
      },
      {
        "lat": 37.77063,
        "lng": -78.87013,
        "seq": 56
      },
      {
        "lat": 37.77084,
        "lng": -78.87021,
        "seq": 57
      },
      {
        "lat": 37.77094,
        "lng": -78.87024,
        "seq": 58
      },
      {
        "lat": 37.77116,
        "lng": -78.8703,
        "seq": 59
      },
      {
        "lat": 37.77138,
        "lng": -78.87034,
        "seq": 60
      },
      {
        "lat": 37.77161,
        "lng": -78.87038,
        "seq": 61
      },
      {
        "lat": 37.77188,
        "lng": -78.87039,
        "seq": 62
      },
      {
        "lat": 37.77213,
        "lng": -78.87038,
        "seq": 63
      },
      {
        "lat": 37.7724,
        "lng": -78.87034,
        "seq": 64
      },
      {
        "lat": 37.77267,
        "lng": -78.87027,
        "seq": 65
      },
      {
        "lat": 37.77276,
        "lng": -78.87025,
        "seq": 66
      },
      {
        "lat": 37.77356,
        "lng": -78.87004,
        "seq": 67
      },
      {
        "lat": 37.7747,
        "lng": -78.86972,
        "seq": 68
      },
      {
        "lat": 37.77527,
        "lng": -78.86957,
        "seq": 69
      },
      {
        "lat": 37.77587,
        "lng": -78.86941,
        "seq": 70
      },
      {
        "lat": 37.77652,
        "lng": -78.86923,
        "seq": 71
      },
      {
        "lat": 37.77715,
        "lng": -78.86906,
        "seq": 72
      },
      {
        "lat": 37.77774,
        "lng": -78.86889,
        "seq": 73
      },
      {
        "lat": 37.77865,
        "lng": -78.86864,
        "seq": 74
      },
      {
        "lat": 37.77957,
        "lng": -78.8684,
        "seq": 75
      },
      {
        "lat": 37.7802,
        "lng": -78.86822,
        "seq": 76
      },
      {
        "lat": 37.78078,
        "lng": -78.86807,
        "seq": 77
      },
      {
        "lat": 37.78289,
        "lng": -78.8675,
        "seq": 78
      },
      {
        "lat": 37.78314,
        "lng": -78.86743,
        "seq": 79
      },
      {
        "lat": 37.78341,
        "lng": -78.86736,
        "seq": 80
      },
      {
        "lat": 37.78405,
        "lng": -78.86718,
        "seq": 81
      },
      {
        "lat": 37.78415,
        "lng": -78.86716,
        "seq": 82
      },
      {
        "lat": 37.78456,
        "lng": -78.86704,
        "seq": 83
      },
      {
        "lat": 37.78506,
        "lng": -78.86692,
        "seq": 84
      },
      {
        "lat": 37.78551,
        "lng": -78.86678,
        "seq": 85
      },
      {
        "lat": 37.78633,
        "lng": -78.86652,
        "seq": 86
      },
      {
        "lat": 37.7865,
        "lng": -78.86646,
        "seq": 87
      },
      {
        "lat": 37.78683,
        "lng": -78.86635,
        "seq": 88
      },
      {
        "lat": 37.78771,
        "lng": -78.86607,
        "seq": 89
      },
      {
        "lat": 37.78882,
        "lng": -78.8657,
        "seq": 90
      },
      {
        "lat": 37.78966,
        "lng": -78.86546,
        "seq": 91
      },
      {
        "lat": 37.79059,
        "lng": -78.86516,
        "seq": 92
      },
      {
        "lat": 37.79135,
        "lng": -78.86493,
        "seq": 93
      },
      {
        "lat": 37.79218,
        "lng": -78.86462,
        "seq": 94
      },
      {
        "lat": 37.79251,
        "lng": -78.86448,
        "seq": 95
      },
      {
        "lat": 37.79279,
        "lng": -78.86434,
        "seq": 96
      },
      {
        "lat": 37.79303,
        "lng": -78.8642,
        "seq": 97
      },
      {
        "lat": 37.79328,
        "lng": -78.86403,
        "seq": 98
      },
      {
        "lat": 37.79352,
        "lng": -78.86385,
        "seq": 99
      },
      {
        "lat": 37.79377,
        "lng": -78.86364,
        "seq": 100
      },
      {
        "lat": 37.79419,
        "lng": -78.86329,
        "seq": 101
      },
      {
        "lat": 37.79436,
        "lng": -78.86313,
        "seq": 102
      },
      {
        "lat": 37.79486,
        "lng": -78.86272,
        "seq": 103
      },
      {
        "lat": 37.79518,
        "lng": -78.86248,
        "seq": 104
      },
      {
        "lat": 37.79552,
        "lng": -78.86227,
        "seq": 105
      },
      {
        "lat": 37.79576,
        "lng": -78.86217,
        "seq": 106
      },
      {
        "lat": 37.79616,
        "lng": -78.86201,
        "seq": 107
      },
      {
        "lat": 37.79622,
        "lng": -78.86199,
        "seq": 108
      },
      {
        "lat": 37.79655,
        "lng": -78.86191,
        "seq": 109
      },
      {
        "lat": 37.79669,
        "lng": -78.86188,
        "seq": 110
      },
      {
        "lat": 37.79694,
        "lng": -78.86185,
        "seq": 111
      },
      {
        "lat": 37.79724,
        "lng": -78.86183,
        "seq": 112
      },
      {
        "lat": 37.79753,
        "lng": -78.86183,
        "seq": 113
      },
      {
        "lat": 37.79775,
        "lng": -78.86184,
        "seq": 114
      },
      {
        "lat": 37.7979,
        "lng": -78.86184,
        "seq": 115
      },
      {
        "lat": 37.79863,
        "lng": -78.86188,
        "seq": 116
      },
      {
        "lat": 37.79974,
        "lng": -78.86192,
        "seq": 117
      },
      {
        "lat": 37.80083,
        "lng": -78.86197,
        "seq": 118
      },
      {
        "lat": 37.80122,
        "lng": -78.86198,
        "seq": 119
      },
      {
        "lat": 37.80187,
        "lng": -78.86201,
        "seq": 120
      },
      {
        "lat": 37.8033,
        "lng": -78.86208,
        "seq": 121
      },
      {
        "lat": 37.80423,
        "lng": -78.8621,
        "seq": 122
      },
      {
        "lat": 37.80444,
        "lng": -78.86209,
        "seq": 123
      },
      {
        "lat": 37.80464,
        "lng": -78.86206,
        "seq": 124
      },
      {
        "lat": 37.80476,
        "lng": -78.86204,
        "seq": 125
      },
      {
        "lat": 37.80482,
        "lng": -78.86202,
        "seq": 126
      },
      {
        "lat": 37.80503,
        "lng": -78.86194,
        "seq": 127
      },
      {
        "lat": 37.80524,
        "lng": -78.86185,
        "seq": 128
      },
      {
        "lat": 37.80543,
        "lng": -78.86175,
        "seq": 129
      },
      {
        "lat": 37.80562,
        "lng": -78.86162,
        "seq": 130
      },
      {
        "lat": 37.80579,
        "lng": -78.86148,
        "seq": 131
      },
      {
        "lat": 37.80599,
        "lng": -78.86131,
        "seq": 132
      },
      {
        "lat": 37.80699,
        "lng": -78.86032,
        "seq": 133
      },
      {
        "lat": 37.80748,
        "lng": -78.85983,
        "seq": 134
      },
      {
        "lat": 37.80882,
        "lng": -78.85851,
        "seq": 135
      },
      {
        "lat": 37.80896,
        "lng": -78.85837,
        "seq": 136
      },
      {
        "lat": 37.80921,
        "lng": -78.85808,
        "seq": 137
      },
      {
        "lat": 37.80951,
        "lng": -78.85773,
        "seq": 138
      },
      {
        "lat": 37.80986,
        "lng": -78.85729,
        "seq": 139
      },
      {
        "lat": 37.81009,
        "lng": -78.85699,
        "seq": 140
      },
      {
        "lat": 37.81034,
        "lng": -78.85666,
        "seq": 141
      },
      {
        "lat": 37.81105,
        "lng": -78.85569,
        "seq": 142
      },
      {
        "lat": 37.81112,
        "lng": -78.85561,
        "seq": 143
      },
      {
        "lat": 37.81137,
        "lng": -78.85526,
        "seq": 144
      },
      {
        "lat": 37.81161,
        "lng": -78.85496,
        "seq": 145
      },
      {
        "lat": 37.81259,
        "lng": -78.85369,
        "seq": 146
      },
      {
        "lat": 37.81282,
        "lng": -78.85339,
        "seq": 147
      },
      {
        "lat": 37.81364,
        "lng": -78.85236,
        "seq": 148
      },
      {
        "lat": 37.81391,
        "lng": -78.85198,
        "seq": 149
      },
      {
        "lat": 37.81427,
        "lng": -78.85152,
        "seq": 150
      },
      {
        "lat": 37.81462,
        "lng": -78.85106,
        "seq": 151
      },
      {
        "lat": 37.81477,
        "lng": -78.85085,
        "seq": 152
      },
      {
        "lat": 37.81486,
        "lng": -78.85073,
        "seq": 153
      },
      {
        "lat": 37.81492,
        "lng": -78.85065,
        "seq": 154
      },
      {
        "lat": 37.81537,
        "lng": -78.85008,
        "seq": 155
      },
      {
        "lat": 37.81648,
        "lng": -78.84864,
        "seq": 156
      },
      {
        "lat": 37.81812,
        "lng": -78.8465,
        "seq": 157
      },
      {
        "lat": 37.8183,
        "lng": -78.84626,
        "seq": 158
      },
      {
        "lat": 37.81878,
        "lng": -78.84564,
        "seq": 159
      },
      {
        "lat": 37.81912,
        "lng": -78.8452,
        "seq": 160
      },
      {
        "lat": 37.81984,
        "lng": -78.84429,
        "seq": 161
      },
      {
        "lat": 37.82023,
        "lng": -78.84381,
        "seq": 162
      },
      {
        "lat": 37.82241,
        "lng": -78.84125,
        "seq": 163
      },
      {
        "lat": 37.82293,
        "lng": -78.84063,
        "seq": 164
      },
      {
        "lat": 37.82338,
        "lng": -78.84011,
        "seq": 165
      },
      {
        "lat": 37.82369,
        "lng": -78.83977,
        "seq": 166
      },
      {
        "lat": 37.82405,
        "lng": -78.83941,
        "seq": 167
      },
      {
        "lat": 37.82443,
        "lng": -78.83905,
        "seq": 168
      },
      {
        "lat": 37.82474,
        "lng": -78.83877,
        "seq": 169
      },
      {
        "lat": 37.82518,
        "lng": -78.83839,
        "seq": 170
      },
      {
        "lat": 37.82548,
        "lng": -78.83815,
        "seq": 171
      },
      {
        "lat": 37.82588,
        "lng": -78.83785,
        "seq": 172
      },
      {
        "lat": 37.82651,
        "lng": -78.83741,
        "seq": 173
      },
      {
        "lat": 37.82682,
        "lng": -78.8372,
        "seq": 174
      },
      {
        "lat": 37.82708,
        "lng": -78.83705,
        "seq": 175
      },
      {
        "lat": 37.8276,
        "lng": -78.83673,
        "seq": 176
      },
      {
        "lat": 37.8281,
        "lng": -78.83645,
        "seq": 177
      },
      {
        "lat": 37.8284,
        "lng": -78.83628,
        "seq": 178
      },
      {
        "lat": 37.82867,
        "lng": -78.83611,
        "seq": 179
      },
      {
        "lat": 37.82912,
        "lng": -78.83585,
        "seq": 180
      },
      {
        "lat": 37.82969,
        "lng": -78.8355,
        "seq": 181
      },
      {
        "lat": 37.82995,
        "lng": -78.83535,
        "seq": 182
      },
      {
        "lat": 37.83057,
        "lng": -78.83498,
        "seq": 183
      },
      {
        "lat": 37.83064,
        "lng": -78.83494,
        "seq": 184
      },
      {
        "lat": 37.83082,
        "lng": -78.83483,
        "seq": 185
      },
      {
        "lat": 37.83114,
        "lng": -78.83465,
        "seq": 186
      },
      {
        "lat": 37.83158,
        "lng": -78.83438,
        "seq": 187
      },
      {
        "lat": 37.83246,
        "lng": -78.83385,
        "seq": 188
      },
      {
        "lat": 37.83269,
        "lng": -78.83372,
        "seq": 189
      },
      {
        "lat": 37.83355,
        "lng": -78.83322,
        "seq": 190
      },
      {
        "lat": 37.83571,
        "lng": -78.83192,
        "seq": 191
      },
      {
        "lat": 37.83626,
        "lng": -78.83157,
        "seq": 192
      },
      {
        "lat": 37.83664,
        "lng": -78.83129,
        "seq": 193
      },
      {
        "lat": 37.83698,
        "lng": -78.83101,
        "seq": 194
      },
      {
        "lat": 37.83725,
        "lng": -78.83077,
        "seq": 195
      },
      {
        "lat": 37.83843,
        "lng": -78.82969,
        "seq": 196
      },
      {
        "lat": 37.8386,
        "lng": -78.82953,
        "seq": 197
      },
      {
        "lat": 37.83877,
        "lng": -78.82935,
        "seq": 198
      },
      {
        "lat": 37.83921,
        "lng": -78.82884,
        "seq": 199
      },
      {
        "lat": 37.83944,
        "lng": -78.82855,
        "seq": 200
      },
      {
        "lat": 37.83967,
        "lng": -78.82825,
        "seq": 201
      },
      {
        "lat": 37.84007,
        "lng": -78.82774,
        "seq": 202
      },
      {
        "lat": 37.84032,
        "lng": -78.82744,
        "seq": 203
      },
      {
        "lat": 37.84039,
        "lng": -78.82736,
        "seq": 204
      },
      {
        "lat": 37.84053,
        "lng": -78.82722,
        "seq": 205
      },
      {
        "lat": 37.84072,
        "lng": -78.82703,
        "seq": 206
      },
      {
        "lat": 37.84099,
        "lng": -78.82681,
        "seq": 207
      },
      {
        "lat": 37.84121,
        "lng": -78.82664,
        "seq": 208
      },
      {
        "lat": 37.84167,
        "lng": -78.82632,
        "seq": 209
      },
      {
        "lat": 37.84232,
        "lng": -78.82585,
        "seq": 210
      },
      {
        "lat": 37.84257,
        "lng": -78.82563,
        "seq": 211
      },
      {
        "lat": 37.84273,
        "lng": -78.82548,
        "seq": 212
      },
      {
        "lat": 37.84292,
        "lng": -78.82528,
        "seq": 213
      },
      {
        "lat": 37.84297,
        "lng": -78.82521,
        "seq": 214
      },
      {
        "lat": 37.84306,
        "lng": -78.8251,
        "seq": 215
      },
      {
        "lat": 37.84322,
        "lng": -78.8249,
        "seq": 216
      },
      {
        "lat": 37.84332,
        "lng": -78.82475,
        "seq": 217
      },
      {
        "lat": 37.84347,
        "lng": -78.82449,
        "seq": 218
      },
      {
        "lat": 37.84363,
        "lng": -78.82419,
        "seq": 219
      },
      {
        "lat": 37.84419,
        "lng": -78.82307,
        "seq": 220
      },
      {
        "lat": 37.84447,
        "lng": -78.82251,
        "seq": 221
      },
      {
        "lat": 37.84481,
        "lng": -78.82183,
        "seq": 222
      },
      {
        "lat": 37.84495,
        "lng": -78.82196,
        "seq": 223
      },
      {
        "lat": 37.84499,
        "lng": -78.82199,
        "seq": 224
      },
      {
        "lat": 37.84505,
        "lng": -78.82203,
        "seq": 225
      },
      {
        "lat": 37.84508,
        "lng": -78.82205,
        "seq": 226
      },
      {
        "lat": 37.84511,
        "lng": -78.82206,
        "seq": 227
      },
      {
        "lat": 37.84516,
        "lng": -78.82208,
        "seq": 228
      },
      {
        "lat": 37.84517,
        "lng": -78.82208,
        "seq": 229
      },
      {
        "lat": 37.84521,
        "lng": -78.82209,
        "seq": 230
      },
      {
        "lat": 37.84525,
        "lng": -78.82209,
        "seq": 231
      },
      {
        "lat": 37.84529,
        "lng": -78.82209,
        "seq": 232
      },
      {
        "lat": 37.84535,
        "lng": -78.82208,
        "seq": 233
      },
      {
        "lat": 37.84528,
        "lng": -78.82213,
        "seq": 234
      },
      {
        "lat": 37.84523,
        "lng": -78.82215,
        "seq": 235
      },
      {
        "lat": 37.84511,
        "lng": -78.82219,
        "seq": 236
      },
      {
        "lat": 37.84509,
        "lng": -78.8222,
        "seq": 237
      },
      {
        "lat": 37.84497,
        "lng": -78.82225,
        "seq": 238
      },
      {
        "lat": 37.84493,
        "lng": -78.82227,
        "seq": 239
      },
      {
        "lat": 37.8449,
        "lng": -78.82229,
        "seq": 240
      },
      {
        "lat": 37.84487,
        "lng": -78.82231,
        "seq": 241
      },
      {
        "lat": 37.84486,
        "lng": -78.82232,
        "seq": 242
      },
      {
        "lat": 37.84483,
        "lng": -78.82234,
        "seq": 243
      },
      {
        "lat": 37.84481,
        "lng": -78.82237,
        "seq": 244
      },
      {
        "lat": 37.84477,
        "lng": -78.82246,
        "seq": 245
      },
      {
        "lat": 37.8445,
        "lng": -78.82286,
        "seq": 246
      },
      {
        "lat": 37.84427,
        "lng": -78.82333,
        "seq": 247
      },
      {
        "lat": 37.84377,
        "lng": -78.82431,
        "seq": 248
      },
      {
        "lat": 37.84363,
        "lng": -78.82419,
        "seq": 249
      },
      {
        "lat": 37.84419,
        "lng": -78.82307,
        "seq": 250
      },
      {
        "lat": 37.84447,
        "lng": -78.82251,
        "seq": 251
      },
      {
        "lat": 37.84481,
        "lng": -78.82183,
        "seq": 252
      },
      {
        "lat": 37.84505,
        "lng": -78.82133,
        "seq": 253
      },
      {
        "lat": 37.84518,
        "lng": -78.82107,
        "seq": 254
      },
      {
        "lat": 37.8453,
        "lng": -78.82082,
        "seq": 255
      },
      {
        "lat": 37.84539,
        "lng": -78.82062,
        "seq": 256
      },
      {
        "lat": 37.84543,
        "lng": -78.82051,
        "seq": 257
      },
      {
        "lat": 37.84548,
        "lng": -78.82038,
        "seq": 258
      },
      {
        "lat": 37.84553,
        "lng": -78.82025,
        "seq": 259
      },
      {
        "lat": 37.84558,
        "lng": -78.82006,
        "seq": 260
      },
      {
        "lat": 37.84562,
        "lng": -78.81992,
        "seq": 261
      },
      {
        "lat": 37.84565,
        "lng": -78.81977,
        "seq": 262
      },
      {
        "lat": 37.84567,
        "lng": -78.81964,
        "seq": 263
      },
      {
        "lat": 37.84569,
        "lng": -78.8195,
        "seq": 264
      },
      {
        "lat": 37.84572,
        "lng": -78.81924,
        "seq": 265
      },
      {
        "lat": 37.84573,
        "lng": -78.81907,
        "seq": 266
      },
      {
        "lat": 37.84574,
        "lng": -78.81885,
        "seq": 267
      },
      {
        "lat": 37.84574,
        "lng": -78.81876,
        "seq": 268
      },
      {
        "lat": 37.84573,
        "lng": -78.81855,
        "seq": 269
      },
      {
        "lat": 37.84572,
        "lng": -78.81837,
        "seq": 270
      },
      {
        "lat": 37.84569,
        "lng": -78.81811,
        "seq": 271
      },
      {
        "lat": 37.84567,
        "lng": -78.81798,
        "seq": 272
      },
      {
        "lat": 37.84563,
        "lng": -78.81778,
        "seq": 273
      },
      {
        "lat": 37.84559,
        "lng": -78.81761,
        "seq": 274
      },
      {
        "lat": 37.84552,
        "lng": -78.81735,
        "seq": 275
      },
      {
        "lat": 37.84544,
        "lng": -78.81708,
        "seq": 276
      },
      {
        "lat": 37.84535,
        "lng": -78.8168,
        "seq": 277
      },
      {
        "lat": 37.84528,
        "lng": -78.81657,
        "seq": 278
      },
      {
        "lat": 37.84512,
        "lng": -78.81607,
        "seq": 279
      },
      {
        "lat": 37.84503,
        "lng": -78.8158,
        "seq": 280
      },
      {
        "lat": 37.84482,
        "lng": -78.81515,
        "seq": 281
      },
      {
        "lat": 37.84466,
        "lng": -78.81466,
        "seq": 282
      },
      {
        "lat": 37.8445,
        "lng": -78.81417,
        "seq": 283
      },
      {
        "lat": 37.84434,
        "lng": -78.81366,
        "seq": 284
      },
      {
        "lat": 37.84421,
        "lng": -78.81324,
        "seq": 285
      },
      {
        "lat": 37.84414,
        "lng": -78.81299,
        "seq": 286
      },
      {
        "lat": 37.84408,
        "lng": -78.81273,
        "seq": 287
      },
      {
        "lat": 37.84403,
        "lng": -78.8125,
        "seq": 288
      },
      {
        "lat": 37.84401,
        "lng": -78.81231,
        "seq": 289
      },
      {
        "lat": 37.84399,
        "lng": -78.81213,
        "seq": 290
      },
      {
        "lat": 37.84399,
        "lng": -78.81195,
        "seq": 291
      },
      {
        "lat": 37.84399,
        "lng": -78.81175,
        "seq": 292
      },
      {
        "lat": 37.844,
        "lng": -78.81156,
        "seq": 293
      },
      {
        "lat": 37.84401,
        "lng": -78.81141,
        "seq": 294
      },
      {
        "lat": 37.84403,
        "lng": -78.81127,
        "seq": 295
      },
      {
        "lat": 37.84406,
        "lng": -78.81111,
        "seq": 296
      },
      {
        "lat": 37.84409,
        "lng": -78.81097,
        "seq": 297
      },
      {
        "lat": 37.84416,
        "lng": -78.8107,
        "seq": 298
      },
      {
        "lat": 37.84423,
        "lng": -78.8105,
        "seq": 299
      },
      {
        "lat": 37.84428,
        "lng": -78.81036,
        "seq": 300
      },
      {
        "lat": 37.84434,
        "lng": -78.81021,
        "seq": 301
      },
      {
        "lat": 37.84449,
        "lng": -78.80993,
        "seq": 302
      },
      {
        "lat": 37.8446,
        "lng": -78.80973,
        "seq": 303
      },
      {
        "lat": 37.8447,
        "lng": -78.80957,
        "seq": 304
      },
      {
        "lat": 37.84492,
        "lng": -78.80927,
        "seq": 305
      },
      {
        "lat": 37.84505,
        "lng": -78.80905,
        "seq": 306
      },
      {
        "lat": 37.84513,
        "lng": -78.80891,
        "seq": 307
      },
      {
        "lat": 37.84519,
        "lng": -78.80879,
        "seq": 308
      },
      {
        "lat": 37.84529,
        "lng": -78.8086,
        "seq": 309
      },
      {
        "lat": 37.8454,
        "lng": -78.80833,
        "seq": 310
      },
      {
        "lat": 37.84548,
        "lng": -78.80812,
        "seq": 311
      },
      {
        "lat": 37.84558,
        "lng": -78.80781,
        "seq": 312
      },
      {
        "lat": 37.84564,
        "lng": -78.80759,
        "seq": 313
      },
      {
        "lat": 37.84568,
        "lng": -78.80744,
        "seq": 314
      },
      {
        "lat": 37.84572,
        "lng": -78.80724,
        "seq": 315
      },
      {
        "lat": 37.84576,
        "lng": -78.807,
        "seq": 316
      },
      {
        "lat": 37.8458,
        "lng": -78.8067,
        "seq": 317
      },
      {
        "lat": 37.84584,
        "lng": -78.8063,
        "seq": 318
      },
      {
        "lat": 37.84593,
        "lng": -78.80518,
        "seq": 319
      },
      {
        "lat": 37.84595,
        "lng": -78.80503,
        "seq": 320
      },
      {
        "lat": 37.84603,
        "lng": -78.80401,
        "seq": 321
      },
      {
        "lat": 37.8463,
        "lng": -78.8008,
        "seq": 322
      },
      {
        "lat": 37.84631,
        "lng": -78.80055,
        "seq": 323
      },
      {
        "lat": 37.84632,
        "lng": -78.80025,
        "seq": 324
      },
      {
        "lat": 37.84632,
        "lng": -78.80003,
        "seq": 325
      },
      {
        "lat": 37.84632,
        "lng": -78.79979,
        "seq": 326
      },
      {
        "lat": 37.8463,
        "lng": -78.7995,
        "seq": 327
      },
      {
        "lat": 37.84627,
        "lng": -78.79927,
        "seq": 328
      },
      {
        "lat": 37.84624,
        "lng": -78.79908,
        "seq": 329
      },
      {
        "lat": 37.8462,
        "lng": -78.79883,
        "seq": 330
      },
      {
        "lat": 37.84614,
        "lng": -78.7986,
        "seq": 331
      },
      {
        "lat": 37.84608,
        "lng": -78.79836,
        "seq": 332
      },
      {
        "lat": 37.84602,
        "lng": -78.79816,
        "seq": 333
      },
      {
        "lat": 37.8459,
        "lng": -78.79786,
        "seq": 334
      },
      {
        "lat": 37.84581,
        "lng": -78.79764,
        "seq": 335
      },
      {
        "lat": 37.84571,
        "lng": -78.79742,
        "seq": 336
      },
      {
        "lat": 37.84559,
        "lng": -78.7972,
        "seq": 337
      },
      {
        "lat": 37.84544,
        "lng": -78.79695,
        "seq": 338
      },
      {
        "lat": 37.84506,
        "lng": -78.79639,
        "seq": 339
      },
      {
        "lat": 37.84468,
        "lng": -78.79586,
        "seq": 340
      },
      {
        "lat": 37.84459,
        "lng": -78.79572,
        "seq": 341
      },
      {
        "lat": 37.84448,
        "lng": -78.79555,
        "seq": 342
      },
      {
        "lat": 37.84439,
        "lng": -78.79537,
        "seq": 343
      },
      {
        "lat": 37.84429,
        "lng": -78.79518,
        "seq": 344
      },
      {
        "lat": 37.84418,
        "lng": -78.79494,
        "seq": 345
      },
      {
        "lat": 37.84409,
        "lng": -78.7947,
        "seq": 346
      },
      {
        "lat": 37.84399,
        "lng": -78.79443,
        "seq": 347
      },
      {
        "lat": 37.84393,
        "lng": -78.79419,
        "seq": 348
      },
      {
        "lat": 37.84387,
        "lng": -78.79395,
        "seq": 349
      },
      {
        "lat": 37.84383,
        "lng": -78.79378,
        "seq": 350
      },
      {
        "lat": 37.84378,
        "lng": -78.79347,
        "seq": 351
      },
      {
        "lat": 37.84374,
        "lng": -78.79312,
        "seq": 352
      },
      {
        "lat": 37.84373,
        "lng": -78.79293,
        "seq": 353
      },
      {
        "lat": 37.84372,
        "lng": -78.79272,
        "seq": 354
      },
      {
        "lat": 37.84372,
        "lng": -78.79224,
        "seq": 355
      },
      {
        "lat": 37.84373,
        "lng": -78.79169,
        "seq": 356
      },
      {
        "lat": 37.84373,
        "lng": -78.79114,
        "seq": 357
      },
      {
        "lat": 37.84371,
        "lng": -78.79071,
        "seq": 358
      },
      {
        "lat": 37.84369,
        "lng": -78.79044,
        "seq": 359
      },
      {
        "lat": 37.84366,
        "lng": -78.79016,
        "seq": 360
      },
      {
        "lat": 37.84361,
        "lng": -78.78988,
        "seq": 361
      },
      {
        "lat": 37.84354,
        "lng": -78.7896,
        "seq": 362
      },
      {
        "lat": 37.84348,
        "lng": -78.78936,
        "seq": 363
      },
      {
        "lat": 37.84339,
        "lng": -78.78907,
        "seq": 364
      },
      {
        "lat": 37.84325,
        "lng": -78.78871,
        "seq": 365
      },
      {
        "lat": 37.84313,
        "lng": -78.78839,
        "seq": 366
      },
      {
        "lat": 37.84302,
        "lng": -78.7881,
        "seq": 367
      },
      {
        "lat": 37.84286,
        "lng": -78.78765,
        "seq": 368
      },
      {
        "lat": 37.84275,
        "lng": -78.78732,
        "seq": 369
      },
      {
        "lat": 37.84268,
        "lng": -78.78706,
        "seq": 370
      },
      {
        "lat": 37.84261,
        "lng": -78.78668,
        "seq": 371
      },
      {
        "lat": 37.84257,
        "lng": -78.78646,
        "seq": 372
      },
      {
        "lat": 37.84254,
        "lng": -78.78629,
        "seq": 373
      },
      {
        "lat": 37.8425,
        "lng": -78.78599,
        "seq": 374
      },
      {
        "lat": 37.84247,
        "lng": -78.78565,
        "seq": 375
      },
      {
        "lat": 37.84246,
        "lng": -78.78527,
        "seq": 376
      },
      {
        "lat": 37.84246,
        "lng": -78.78495,
        "seq": 377
      },
      {
        "lat": 37.84247,
        "lng": -78.78459,
        "seq": 378
      },
      {
        "lat": 37.84263,
        "lng": -78.78221,
        "seq": 379
      },
      {
        "lat": 37.84278,
        "lng": -78.7805,
        "seq": 380
      },
      {
        "lat": 37.84282,
        "lng": -78.77999,
        "seq": 381
      },
      {
        "lat": 37.8429,
        "lng": -78.77892,
        "seq": 382
      },
      {
        "lat": 37.84299,
        "lng": -78.77812,
        "seq": 383
      },
      {
        "lat": 37.84304,
        "lng": -78.77777,
        "seq": 384
      },
      {
        "lat": 37.84314,
        "lng": -78.77707,
        "seq": 385
      },
      {
        "lat": 37.84325,
        "lng": -78.77644,
        "seq": 386
      },
      {
        "lat": 37.8434,
        "lng": -78.77565,
        "seq": 387
      },
      {
        "lat": 37.8436,
        "lng": -78.77463,
        "seq": 388
      },
      {
        "lat": 37.84379,
        "lng": -78.77363,
        "seq": 389
      },
      {
        "lat": 37.84386,
        "lng": -78.77328,
        "seq": 390
      },
      {
        "lat": 37.84391,
        "lng": -78.77298,
        "seq": 391
      },
      {
        "lat": 37.84409,
        "lng": -78.77213,
        "seq": 392
      },
      {
        "lat": 37.84432,
        "lng": -78.77116,
        "seq": 393
      },
      {
        "lat": 37.84444,
        "lng": -78.77065,
        "seq": 394
      },
      {
        "lat": 37.84462,
        "lng": -78.76999,
        "seq": 395
      },
      {
        "lat": 37.84494,
        "lng": -78.76886,
        "seq": 396
      },
      {
        "lat": 37.84514,
        "lng": -78.76816,
        "seq": 397
      },
      {
        "lat": 37.84547,
        "lng": -78.76701,
        "seq": 398
      },
      {
        "lat": 37.84566,
        "lng": -78.76637,
        "seq": 399
      },
      {
        "lat": 37.84601,
        "lng": -78.76512,
        "seq": 400
      },
      {
        "lat": 37.84701,
        "lng": -78.76166,
        "seq": 401
      },
      {
        "lat": 37.84722,
        "lng": -78.7609,
        "seq": 402
      },
      {
        "lat": 37.8474,
        "lng": -78.7603,
        "seq": 403
      },
      {
        "lat": 37.84751,
        "lng": -78.75996,
        "seq": 404
      },
      {
        "lat": 37.8476,
        "lng": -78.7597,
        "seq": 405
      },
      {
        "lat": 37.84765,
        "lng": -78.75953,
        "seq": 406
      },
      {
        "lat": 37.84781,
        "lng": -78.75911,
        "seq": 407
      },
      {
        "lat": 37.84795,
        "lng": -78.75878,
        "seq": 408
      },
      {
        "lat": 37.84812,
        "lng": -78.75841,
        "seq": 409
      },
      {
        "lat": 37.84829,
        "lng": -78.75806,
        "seq": 410
      },
      {
        "lat": 37.84875,
        "lng": -78.75715,
        "seq": 411
      },
      {
        "lat": 37.84883,
        "lng": -78.75699,
        "seq": 412
      },
      {
        "lat": 37.84906,
        "lng": -78.75655,
        "seq": 413
      },
      {
        "lat": 37.84931,
        "lng": -78.75611,
        "seq": 414
      },
      {
        "lat": 37.84946,
        "lng": -78.75586,
        "seq": 415
      },
      {
        "lat": 37.84984,
        "lng": -78.75524,
        "seq": 416
      },
      {
        "lat": 37.85013,
        "lng": -78.75477,
        "seq": 417
      },
      {
        "lat": 37.85038,
        "lng": -78.75438,
        "seq": 418
      },
      {
        "lat": 37.85067,
        "lng": -78.75394,
        "seq": 419
      },
      {
        "lat": 37.85087,
        "lng": -78.75367,
        "seq": 420
      },
      {
        "lat": 37.85113,
        "lng": -78.75336,
        "seq": 421
      },
      {
        "lat": 37.85126,
        "lng": -78.75322,
        "seq": 422
      },
      {
        "lat": 37.85172,
        "lng": -78.75274,
        "seq": 423
      },
      {
        "lat": 37.85237,
        "lng": -78.75205,
        "seq": 424
      },
      {
        "lat": 37.85272,
        "lng": -78.75166,
        "seq": 425
      },
      {
        "lat": 37.85293,
        "lng": -78.7514,
        "seq": 426
      },
      {
        "lat": 37.85313,
        "lng": -78.75113,
        "seq": 427
      },
      {
        "lat": 37.85338,
        "lng": -78.75079,
        "seq": 428
      },
      {
        "lat": 37.85356,
        "lng": -78.7505,
        "seq": 429
      },
      {
        "lat": 37.85382,
        "lng": -78.75008,
        "seq": 430
      },
      {
        "lat": 37.85402,
        "lng": -78.74973,
        "seq": 431
      },
      {
        "lat": 37.85421,
        "lng": -78.74937,
        "seq": 432
      },
      {
        "lat": 37.85438,
        "lng": -78.749,
        "seq": 433
      },
      {
        "lat": 37.85453,
        "lng": -78.74862,
        "seq": 434
      },
      {
        "lat": 37.85474,
        "lng": -78.74805,
        "seq": 435
      },
      {
        "lat": 37.85508,
        "lng": -78.74704,
        "seq": 436
      },
      {
        "lat": 37.85526,
        "lng": -78.74654,
        "seq": 437
      },
      {
        "lat": 37.85529,
        "lng": -78.74647,
        "seq": 438
      },
      {
        "lat": 37.85547,
        "lng": -78.74598,
        "seq": 439
      },
      {
        "lat": 37.85564,
        "lng": -78.7456,
        "seq": 440
      },
      {
        "lat": 37.85585,
        "lng": -78.74513,
        "seq": 441
      },
      {
        "lat": 37.85606,
        "lng": -78.74467,
        "seq": 442
      },
      {
        "lat": 37.8563,
        "lng": -78.74425,
        "seq": 443
      },
      {
        "lat": 37.85659,
        "lng": -78.74376,
        "seq": 444
      },
      {
        "lat": 37.85667,
        "lng": -78.74364,
        "seq": 445
      },
      {
        "lat": 37.85682,
        "lng": -78.74342,
        "seq": 446
      },
      {
        "lat": 37.85715,
        "lng": -78.74295,
        "seq": 447
      },
      {
        "lat": 37.85739,
        "lng": -78.74264,
        "seq": 448
      },
      {
        "lat": 37.85764,
        "lng": -78.74234,
        "seq": 449
      },
      {
        "lat": 37.85768,
        "lng": -78.74229,
        "seq": 450
      },
      {
        "lat": 37.85805,
        "lng": -78.7419,
        "seq": 451
      },
      {
        "lat": 37.85843,
        "lng": -78.7415,
        "seq": 452
      },
      {
        "lat": 37.85865,
        "lng": -78.74129,
        "seq": 453
      },
      {
        "lat": 37.85869,
        "lng": -78.74125,
        "seq": 454
      },
      {
        "lat": 37.85903,
        "lng": -78.74096,
        "seq": 455
      },
      {
        "lat": 37.85935,
        "lng": -78.7407,
        "seq": 456
      },
      {
        "lat": 37.8594,
        "lng": -78.74067,
        "seq": 457
      },
      {
        "lat": 37.85968,
        "lng": -78.74045,
        "seq": 458
      },
      {
        "lat": 37.86039,
        "lng": -78.7399,
        "seq": 459
      },
      {
        "lat": 37.86065,
        "lng": -78.73967,
        "seq": 460
      },
      {
        "lat": 37.8609,
        "lng": -78.73943,
        "seq": 461
      },
      {
        "lat": 37.86115,
        "lng": -78.73918,
        "seq": 462
      },
      {
        "lat": 37.86136,
        "lng": -78.73895,
        "seq": 463
      },
      {
        "lat": 37.8616,
        "lng": -78.73865,
        "seq": 464
      },
      {
        "lat": 37.8618,
        "lng": -78.73841,
        "seq": 465
      },
      {
        "lat": 37.86203,
        "lng": -78.73809,
        "seq": 466
      },
      {
        "lat": 37.86226,
        "lng": -78.73773,
        "seq": 467
      },
      {
        "lat": 37.86245,
        "lng": -78.73743,
        "seq": 468
      },
      {
        "lat": 37.86264,
        "lng": -78.73708,
        "seq": 469
      },
      {
        "lat": 37.86289,
        "lng": -78.73657,
        "seq": 470
      },
      {
        "lat": 37.86309,
        "lng": -78.73619,
        "seq": 471
      },
      {
        "lat": 37.86348,
        "lng": -78.73543,
        "seq": 472
      },
      {
        "lat": 37.86394,
        "lng": -78.73453,
        "seq": 473
      },
      {
        "lat": 37.86427,
        "lng": -78.73387,
        "seq": 474
      },
      {
        "lat": 37.86443,
        "lng": -78.73356,
        "seq": 475
      },
      {
        "lat": 37.8647,
        "lng": -78.73304,
        "seq": 476
      },
      {
        "lat": 37.86521,
        "lng": -78.73204,
        "seq": 477
      },
      {
        "lat": 37.86526,
        "lng": -78.73195,
        "seq": 478
      },
      {
        "lat": 37.86534,
        "lng": -78.73178,
        "seq": 479
      },
      {
        "lat": 37.86553,
        "lng": -78.73141,
        "seq": 480
      },
      {
        "lat": 37.86617,
        "lng": -78.73015,
        "seq": 481
      },
      {
        "lat": 37.86625,
        "lng": -78.72999,
        "seq": 482
      },
      {
        "lat": 37.86639,
        "lng": -78.72972,
        "seq": 483
      },
      {
        "lat": 37.86691,
        "lng": -78.72869,
        "seq": 484
      },
      {
        "lat": 37.86733,
        "lng": -78.72789,
        "seq": 485
      },
      {
        "lat": 37.86751,
        "lng": -78.72753,
        "seq": 486
      },
      {
        "lat": 37.8679,
        "lng": -78.72676,
        "seq": 487
      },
      {
        "lat": 37.8682,
        "lng": -78.72617,
        "seq": 488
      },
      {
        "lat": 37.86836,
        "lng": -78.72587,
        "seq": 489
      },
      {
        "lat": 37.86858,
        "lng": -78.72543,
        "seq": 490
      },
      {
        "lat": 37.86876,
        "lng": -78.72508,
        "seq": 491
      },
      {
        "lat": 37.86905,
        "lng": -78.72452,
        "seq": 492
      },
      {
        "lat": 37.86935,
        "lng": -78.7239,
        "seq": 493
      },
      {
        "lat": 37.86995,
        "lng": -78.72278,
        "seq": 494
      },
      {
        "lat": 37.87054,
        "lng": -78.72159,
        "seq": 495
      },
      {
        "lat": 37.87111,
        "lng": -78.72048,
        "seq": 496
      },
      {
        "lat": 37.87137,
        "lng": -78.71996,
        "seq": 497
      },
      {
        "lat": 37.8715,
        "lng": -78.7197,
        "seq": 498
      },
      {
        "lat": 37.87167,
        "lng": -78.71936,
        "seq": 499
      },
      {
        "lat": 37.87203,
        "lng": -78.71872,
        "seq": 500
      },
      {
        "lat": 37.87218,
        "lng": -78.71847,
        "seq": 501
      },
      {
        "lat": 37.87239,
        "lng": -78.71816,
        "seq": 502
      },
      {
        "lat": 37.87255,
        "lng": -78.71794,
        "seq": 503
      },
      {
        "lat": 37.87285,
        "lng": -78.71759,
        "seq": 504
      },
      {
        "lat": 37.87314,
        "lng": -78.71728,
        "seq": 505
      },
      {
        "lat": 37.87338,
        "lng": -78.71706,
        "seq": 506
      },
      {
        "lat": 37.87373,
        "lng": -78.71674,
        "seq": 507
      },
      {
        "lat": 37.874,
        "lng": -78.71654,
        "seq": 508
      },
      {
        "lat": 37.87422,
        "lng": -78.71639,
        "seq": 509
      },
      {
        "lat": 37.87466,
        "lng": -78.71614,
        "seq": 510
      },
      {
        "lat": 37.87487,
        "lng": -78.71604,
        "seq": 511
      },
      {
        "lat": 37.87521,
        "lng": -78.71591,
        "seq": 512
      },
      {
        "lat": 37.87541,
        "lng": -78.71583,
        "seq": 513
      },
      {
        "lat": 37.87571,
        "lng": -78.71572,
        "seq": 514
      },
      {
        "lat": 37.8761,
        "lng": -78.71557,
        "seq": 515
      },
      {
        "lat": 37.87656,
        "lng": -78.71539,
        "seq": 516
      },
      {
        "lat": 37.87702,
        "lng": -78.71522,
        "seq": 517
      },
      {
        "lat": 37.87721,
        "lng": -78.71514,
        "seq": 518
      },
      {
        "lat": 37.87737,
        "lng": -78.71509,
        "seq": 519
      },
      {
        "lat": 37.87758,
        "lng": -78.715,
        "seq": 520
      },
      {
        "lat": 37.87779,
        "lng": -78.71492,
        "seq": 521
      },
      {
        "lat": 37.87813,
        "lng": -78.7148,
        "seq": 522
      },
      {
        "lat": 37.87843,
        "lng": -78.71469,
        "seq": 523
      },
      {
        "lat": 37.8788,
        "lng": -78.71453,
        "seq": 524
      },
      {
        "lat": 37.87901,
        "lng": -78.71445,
        "seq": 525
      },
      {
        "lat": 37.87912,
        "lng": -78.71442,
        "seq": 526
      },
      {
        "lat": 37.87955,
        "lng": -78.71426,
        "seq": 527
      },
      {
        "lat": 37.87985,
        "lng": -78.71414,
        "seq": 528
      },
      {
        "lat": 37.88059,
        "lng": -78.7139,
        "seq": 529
      },
      {
        "lat": 37.88104,
        "lng": -78.71376,
        "seq": 530
      },
      {
        "lat": 37.88126,
        "lng": -78.71368,
        "seq": 531
      },
      {
        "lat": 37.88146,
        "lng": -78.71362,
        "seq": 532
      },
      {
        "lat": 37.8817,
        "lng": -78.71353,
        "seq": 533
      },
      {
        "lat": 37.88194,
        "lng": -78.71345,
        "seq": 534
      },
      {
        "lat": 37.882,
        "lng": -78.71343,
        "seq": 535
      },
      {
        "lat": 37.88211,
        "lng": -78.71339,
        "seq": 536
      },
      {
        "lat": 37.88234,
        "lng": -78.71331,
        "seq": 537
      },
      {
        "lat": 37.88266,
        "lng": -78.71318,
        "seq": 538
      },
      {
        "lat": 37.88305,
        "lng": -78.71301,
        "seq": 539
      },
      {
        "lat": 37.88328,
        "lng": -78.71289,
        "seq": 540
      },
      {
        "lat": 37.88355,
        "lng": -78.71273,
        "seq": 541
      },
      {
        "lat": 37.88384,
        "lng": -78.71256,
        "seq": 542
      },
      {
        "lat": 37.88412,
        "lng": -78.71237,
        "seq": 543
      },
      {
        "lat": 37.88426,
        "lng": -78.71228,
        "seq": 544
      },
      {
        "lat": 37.88445,
        "lng": -78.71214,
        "seq": 545
      },
      {
        "lat": 37.88467,
        "lng": -78.71197,
        "seq": 546
      },
      {
        "lat": 37.88488,
        "lng": -78.71181,
        "seq": 547
      },
      {
        "lat": 37.88509,
        "lng": -78.71164,
        "seq": 548
      },
      {
        "lat": 37.88535,
        "lng": -78.71142,
        "seq": 549
      },
      {
        "lat": 37.88564,
        "lng": -78.71114,
        "seq": 550
      },
      {
        "lat": 37.88599,
        "lng": -78.7108,
        "seq": 551
      },
      {
        "lat": 37.88631,
        "lng": -78.71047,
        "seq": 552
      },
      {
        "lat": 37.88656,
        "lng": -78.71019,
        "seq": 553
      },
      {
        "lat": 37.88678,
        "lng": -78.70993,
        "seq": 554
      },
      {
        "lat": 37.88706,
        "lng": -78.70958,
        "seq": 555
      },
      {
        "lat": 37.8872,
        "lng": -78.70941,
        "seq": 556
      },
      {
        "lat": 37.88735,
        "lng": -78.70921,
        "seq": 557
      },
      {
        "lat": 37.88765,
        "lng": -78.70878,
        "seq": 558
      },
      {
        "lat": 37.88818,
        "lng": -78.70797,
        "seq": 559
      },
      {
        "lat": 37.8884,
        "lng": -78.70764,
        "seq": 560
      },
      {
        "lat": 37.88851,
        "lng": -78.70747,
        "seq": 561
      },
      {
        "lat": 37.88866,
        "lng": -78.70724,
        "seq": 562
      },
      {
        "lat": 37.88884,
        "lng": -78.70696,
        "seq": 563
      },
      {
        "lat": 37.88908,
        "lng": -78.7066,
        "seq": 564
      },
      {
        "lat": 37.88943,
        "lng": -78.70609,
        "seq": 565
      },
      {
        "lat": 37.88967,
        "lng": -78.70571,
        "seq": 566
      },
      {
        "lat": 37.89002,
        "lng": -78.70519,
        "seq": 567
      },
      {
        "lat": 37.89021,
        "lng": -78.70489,
        "seq": 568
      },
      {
        "lat": 37.89116,
        "lng": -78.70344,
        "seq": 569
      },
      {
        "lat": 37.89143,
        "lng": -78.70304,
        "seq": 570
      },
      {
        "lat": 37.89164,
        "lng": -78.70272,
        "seq": 571
      },
      {
        "lat": 37.89191,
        "lng": -78.70233,
        "seq": 572
      },
      {
        "lat": 37.89222,
        "lng": -78.70184,
        "seq": 573
      },
      {
        "lat": 37.89266,
        "lng": -78.70116,
        "seq": 574
      },
      {
        "lat": 37.89293,
        "lng": -78.70078,
        "seq": 575
      },
      {
        "lat": 37.89298,
        "lng": -78.70071,
        "seq": 576
      },
      {
        "lat": 37.89305,
        "lng": -78.70062,
        "seq": 577
      },
      {
        "lat": 37.89327,
        "lng": -78.70034,
        "seq": 578
      },
      {
        "lat": 37.89357,
        "lng": -78.69999,
        "seq": 579
      },
      {
        "lat": 37.8938,
        "lng": -78.69975,
        "seq": 580
      },
      {
        "lat": 37.8941,
        "lng": -78.69948,
        "seq": 581
      },
      {
        "lat": 37.89433,
        "lng": -78.69929,
        "seq": 582
      },
      {
        "lat": 37.89494,
        "lng": -78.69883,
        "seq": 583
      },
      {
        "lat": 37.89528,
        "lng": -78.69856,
        "seq": 584
      },
      {
        "lat": 37.89552,
        "lng": -78.69837,
        "seq": 585
      },
      {
        "lat": 37.89585,
        "lng": -78.69812,
        "seq": 586
      },
      {
        "lat": 37.89606,
        "lng": -78.69797,
        "seq": 587
      },
      {
        "lat": 37.89641,
        "lng": -78.6977,
        "seq": 588
      },
      {
        "lat": 37.89724,
        "lng": -78.69706,
        "seq": 589
      },
      {
        "lat": 37.89804,
        "lng": -78.69644,
        "seq": 590
      },
      {
        "lat": 37.89904,
        "lng": -78.69568,
        "seq": 591
      },
      {
        "lat": 37.89986,
        "lng": -78.69505,
        "seq": 592
      },
      {
        "lat": 37.9004,
        "lng": -78.69466,
        "seq": 593
      },
      {
        "lat": 37.9006,
        "lng": -78.69452,
        "seq": 594
      },
      {
        "lat": 37.90073,
        "lng": -78.69443,
        "seq": 595
      },